[{"model": "api.station", "pk": 901, "fields": {"name": "00901 - PORT SOLF\u00c9RINO (STATION MOBILE)", "address": "QUAI ANATOLE FRANCE - PONT SOLFERINO - 75007 PARIS", "lat": 48.86138, "lng": 2.32442, "banking": true, "bonus": true, "status": "OPEN", "contract_name": "Paris", "bike_stands": 20, "available_bike_stands": 7, "available_bikes": 12, "optimal_criterion": 0.2, "last_update": "2016-01-24T19:17:50Z", "modified_date": "2016-01-24T19:26:28.424Z"}}, {"model": "api.station", "pk": 903, "fields": {"name": "00903 - QUAI MAURIAC  / PONT DE BERCY", "address": "FETE DE L'OH (BERCY) - QUAI MAURIAC ANG PONT DE BERCY - 75013 PARIS", "lat": 48.8371336895, "lng": 2.37434055461, "banking": true, "bonus": true, "status": "OPEN", "contract_name": "Paris", "bike_stands": 20, "available_bike_stands": 15, "available_bikes": 5, "optimal_criterion": -0.5, "last_update": "2016-01-24T19:21:29Z", "modified_date": "2016-01-24T19:26:22.604Z"}}, {"model": "api.station", "pk": 904, "fields": {"name": "00904 - PLACE JOFFRE / ECOLE MILITAIRE", "address": "ECOLE MILITAIRE-AVENUE DE LA MOTTE PICQUET - 75007 PARIS", "lat": 48.8521362052, "lng": 2.30196122721, "banking": true, "bonus": true, "status": "OPEN", "contract_name": "Paris", "bike_stands": 30, "available_bike_stands": 10, "available_bikes": 19, "optimal_criterion": 0.26666666666666666, "last_update": "2016-01-24T19:21:32Z", "modified_date": "2016-01-24T19:26:22.689Z"}}, {"model": "api.station", "pk": 905, "fields": {"name": "00905 - CONCORDE/BERGES DE SEINE (STATION MOBILE)", "address": "QUAI D'ORSAY - CONCORDE - 75007 PARIS", "lat": 48.86314, "lng": 2.31669, "banking": true, "bonus": true, "status": "OPEN", "contract_name": "Paris", "bike_stands": 20, "available_bike_stands": 12, "available_bikes": 8, "optimal_criterion": -0.2, "last_update": "2016-01-24T19:21:28Z", "modified_date": "2016-01-24T19:26:22.080Z"}}, {"model": "api.station", "pk": 906, "fields": {"name": "00906 - GARE DE L'EST", "address": "GARE DE L'EST-PARVIS GARE DE L'EST - 75010 PARIS", "lat": 48.8764198136, "lng": 2.35863006454, "banking": true, "bonus": true, "status": "OPEN", "contract_name": "Paris", "bike_stands": 20, "available_bike_stands": 18, "available_bikes": 2, "optimal_criterion": -0.8, "last_update": "2016-01-24T19:21:04Z", "modified_date": "2016-01-24T19:26:25.932Z"}}, {"model": "api.station", "pk": 907, "fields": {"name": "00907 - WE LOVE GREEN", "address": "Route de S\u00e8vres  - 75016 Paris", "lat": 48.871668, "lng": 2.246229, "banking": true, "bonus": true, "status": "OPEN", "contract_name": "Paris", "bike_stands": 30, "available_bike_stands": 30, "available_bikes": 0, "optimal_criterion": -1.0, "last_update": "2015-05-31T21:44:33Z", "modified_date": "2016-01-24T19:26:20.101Z"}}, {"model": "api.station", "pk": 908, "fields": {"name": "00908 - PORT DU GROS CAILLOU (STATION MOBILE)", "address": "QUAI D'ORSAY - PORT DU GROS CAILLOU - 75007 PARIS", "lat": 48.86288, "lng": 2.30652, "banking": true, "bonus": true, "status": "OPEN", "contract_name": "Paris", "bike_stands": 20, "available_bike_stands": 14, "available_bikes": 1, "optimal_criterion": -0.9, "last_update": "2016-01-24T19:20:37Z", "modified_date": "2016-01-24T19:26:26.006Z"}}, {"model": "api.station", "pk": 1001, "fields": {"name": "01001 - ILE DE LA CITE PONT NEUF", "address": "41 QUAI DE L'HORLOGE - 75001 PARIS", "lat": 48.8570916352, "lng": 2.34174799516, "banking": true, "bonus": true, "status": "OPEN", "contract_name": "Paris", "bike_stands": 16, "available_bike_stands": 14, "available_bikes": 2, "optimal_criterion": -0.75, "last_update": "2016-01-24T19:15:57Z", "modified_date": "2016-01-24T19:26:19.589Z"}}, {"model": "api.station", "pk": 1002, "fields": {"name": "01002 - PLACE DU CHATELET", "address": "14 AVENUE VICTORIA - 75001 PARIS", "lat": 48.857940093, "lng": 2.34701005811, "banking": true, "bonus": true, "status": "OPEN", "contract_name": "Paris", "bike_stands": 21, "available_bike_stands": 5, "available_bikes": 16, "optimal_criterion": 0.5238095238095238, "last_update": "2016-01-24T19:21:33Z", "modified_date": "2016-01-24T19:26:22.474Z"}}, {"model": "api.station", "pk": 1003, "fields": {"name": "01003 - RIVOLI SAINT DENIS", "address": "7 RUE SAINT DENIS - 75001 PARIS", "lat": 48.8591502873, "lng": 2.34762008768, "banking": true, "bonus": true, "status": "OPEN", "contract_name": "Paris", "bike_stands": 50, "available_bike_stands": 20, "available_bikes": 30, "optimal_criterion": 0.2, "last_update": "2016-01-24T19:23:42Z", "modified_date": "2016-01-24T19:26:23.533Z"}}, {"model": "api.station", "pk": 1004, "fields": {"name": "01004 - MARGUERITE DE NAVARRE", "address": "12 RUE DES HALLES - 75001 PARIS", "lat": 48.8598963144, "lng": 2.34675666755, "banking": true, "bonus": true, "status": "OPEN", "contract_name": "Paris", "bike_stands": 42, "available_bike_stands": 32, "available_bikes": 10, "optimal_criterion": -0.5238095238095238, "last_update": "2016-01-24T19:24:34Z", "modified_date": "2016-01-24T19:26:21.283Z"}}, {"model": "api.station", "pk": 1005, "fields": {"name": "01005 - LES HALLES - SEBASTOPOL", "address": "3 RUE DE LA COSSONNERIE - 75001 PARIS", "lat": 48.8612620698, "lng": 2.34939999975, "banking": true, "bonus": true, "status": "OPEN", "contract_name": "Paris", "bike_stands": 33, "available_bike_stands": 2, "available_bikes": 31, "optimal_criterion": 0.8787878787878788, "last_update": "2016-01-24T19:20:57Z", "modified_date": "2016-01-24T19:26:26.397Z"}}, {"model": "api.station", "pk": 1006, "fields": {"name": "01006 - GRANDE TRUANDERIE", "address": "2-4 rue DE LA GRANDE TRUANDERIE 75001 PARIS", "lat": 48.8626318042, "lng": 2.34973214483, "banking": true, "bonus": true, "status": "OPEN", "contract_name": "Paris", "bike_stands": 33, "available_bike_stands": 0, "available_bikes": 33, "optimal_criterion": 1.0, "last_update": "2016-01-24T19:16:35Z", "modified_date": "2016-01-24T19:26:18.894Z"}}, {"model": "api.station", "pk": 1007, "fields": {"name": "01007 - ETIENNE MARCEL", "address": "2 RUE DE TURBIGO - 75001 PARIS", "lat": 48.8635670471, "lng": 2.34770202114, "banking": true, "bonus": true, "status": "OPEN", "contract_name": "Paris", "bike_stands": 20, "available_bike_stands": 0, "available_bikes": 20, "optimal_criterion": 1.0, "last_update": "2016-01-24T19:24:44Z", "modified_date": "2016-01-24T19:26:20.522Z"}}, {"model": "api.station", "pk": 1008, "fields": {"name": "01008 - LOUVRE / COQUILLERE", "address": "9 rue COQUILLIERE 75001 PARIS", "lat": 48.8635805065, "lng": 2.34260946382, "banking": true, "bonus": true, "status": "CLOSED", "contract_name": "Paris", "bike_stands": 22, "available_bike_stands": 0, "available_bikes": 0, "optimal_criterion": -1.0, "last_update": "2015-09-21T07:09:07Z", "modified_date": "2016-01-24T19:26:20.094Z"}}, {"model": "api.station", "pk": 1009, "fields": {"name": "01009 - PONT NEUF - 14", "address": "14 RUE DU PONT NEUF - 75001 PARIS", "lat": 48.8602451945, "lng": 2.34433354527, "banking": true, "bonus": true, "status": "OPEN", "contract_name": "Paris", "bike_stands": 24, "available_bike_stands": 11, "available_bikes": 13, "optimal_criterion": 0.08333333333333333, "last_update": "2016-01-24T19:21:31Z", "modified_date": "2016-01-24T19:26:22.415Z"}}, {"model": "api.station", "pk": 1010, "fields": {"name": "01010 - PONT NEUF", "address": "10 RUE BOUCHER - 75001 PARIS", "lat": 48.8594623892, "lng": 2.34436612845, "banking": true, "bonus": true, "status": "OPEN", "contract_name": "Paris", "bike_stands": 25, "available_bike_stands": 21, "available_bikes": 4, "optimal_criterion": -0.68, "last_update": "2016-01-24T19:24:15Z", "modified_date": "2016-01-24T19:26:23.541Z"}}, {"model": "api.station", "pk": 1011, "fields": {"name": "01011 - RIVOLI MAIRIE DU 1ER", "address": "36 RUE DE L'ARBRE SEC - 75001 PARIS", "lat": 48.8602470954, "lng": 2.34230264573, "banking": true, "bonus": true, "status": "CLOSED", "contract_name": "Paris", "bike_stands": 20, "available_bike_stands": 0, "available_bikes": 0, "optimal_criterion": -1.0, "last_update": "2015-08-10T06:44:26Z", "modified_date": "2016-01-24T19:26:20.108Z"}}, {"model": "api.station", "pk": 1012, "fields": {"name": "01012 - BOURSE DU COMMERCE", "address": "FACE 29 RUE JEAN JACQUES ROUSSEAU - 75001 PARIS", "lat": 48.8629981668, "lng": 2.34155507783, "banking": true, "bonus": true, "status": "OPEN", "contract_name": "Paris", "bike_stands": 22, "available_bike_stands": 7, "available_bikes": 15, "optimal_criterion": 0.36363636363636365, "last_update": "2016-01-24T19:19:33Z", "modified_date": "2016-01-24T19:26:26.894Z"}}, {"model": "api.station", "pk": 1013, "fields": {"name": "01013 - SAINT HONORE", "address": "186 RUE SAINT HONORE - 75001 PARIS", "lat": 48.8624302348, "lng": 2.33852013115, "banking": true, "bonus": true, "status": "OPEN", "contract_name": "Paris", "bike_stands": 66, "available_bike_stands": 15, "available_bikes": 51, "optimal_criterion": 0.5454545454545454, "last_update": "2016-01-24T19:23:42Z", "modified_date": "2016-01-24T19:26:24.009Z"}}, {"model": "api.station", "pk": 1014, "fields": {"name": "01014 - RIVOLI MUSEE DU LOUVRE", "address": "5 RUE DE L'ECHELLE - 75001 PARIS", "lat": 48.8636722554, "lng": 2.33405760805, "banking": true, "bonus": true, "status": "OPEN", "contract_name": "Paris", "bike_stands": 25, "available_bike_stands": 10, "available_bikes": 15, "optimal_criterion": 0.2, "last_update": "2016-01-24T19:15:54Z", "modified_date": "2016-01-24T19:26:19.932Z"}}, {"model": "api.station", "pk": 1015, "fields": {"name": "01015 - PLACE ANDRE MALRAUX", "address": "2 PLACE ANDRE MALRAUX - 75001 PARIS", "lat": 48.8639796552, "lng": 2.33559960389, "banking": true, "bonus": true, "status": "OPEN", "contract_name": "Paris", "bike_stands": 20, "available_bike_stands": 3, "available_bikes": 15, "optimal_criterion": 0.5, "last_update": "2016-01-24T19:24:37Z", "modified_date": "2016-01-24T19:26:20.461Z"}}, {"model": "api.station", "pk": 1016, "fields": {"name": "01016 - OPERA PYRAMIDES", "address": "27 RUE THERESE - 75001 PARIS", "lat": 48.8664835145, "lng": 2.33443342122, "banking": true, "bonus": true, "status": "OPEN", "contract_name": "Paris", "bike_stands": 25, "available_bike_stands": 2, "available_bikes": 23, "optimal_criterion": 0.84, "last_update": "2016-01-24T19:24:53Z", "modified_date": "2016-01-24T19:26:20.790Z"}}, {"model": "api.station", "pk": 1017, "fields": {"name": "01017 - SAINT HONORE", "address": "215 RUE SAINT HONORE - 75001 PARIS", "lat": 48.8655711428, "lng": 2.33056741758, "banking": true, "bonus": true, "status": "OPEN", "contract_name": "Paris", "bike_stands": 20, "available_bike_stands": 0, "available_bikes": 20, "optimal_criterion": 1.0, "last_update": "2016-01-24T19:24:01Z", "modified_date": "2016-01-24T19:26:24.516Z"}}, {"model": "api.station", "pk": 1018, "fields": {"name": "01018 - RIVOLI TUILERIE", "address": "2 RUE D'ALGER - 75001 PARIS", "lat": 48.8647936661, "lng": 2.32943142195, "banking": true, "bonus": true, "status": "OPEN", "contract_name": "Paris", "bike_stands": 21, "available_bike_stands": 0, "available_bikes": 21, "optimal_criterion": 1.0, "last_update": "2016-01-24T19:19:15Z", "modified_date": "2016-01-24T19:26:28.270Z"}}, {"model": "api.station", "pk": 1019, "fields": {"name": "01019 - SAINT HONORE VENDOME", "address": "237 RUE SAINT HONORE - 75001 PARIS", "lat": 48.8666980085, "lng": 2.32828818572, "banking": true, "bonus": true, "status": "OPEN", "contract_name": "Paris", "bike_stands": 14, "available_bike_stands": 0, "available_bikes": 14, "optimal_criterion": 1.0, "last_update": "2016-01-24T19:18:51Z", "modified_date": "2016-01-24T19:26:28.099Z"}}, {"model": "api.station", "pk": 1020, "fields": {"name": "01020 - RIVOLI CONCORDE", "address": "2 RUE CAMBON - 75001 PARIS", "lat": 48.8662852212, "lng": 2.32524904508, "banking": true, "bonus": true, "status": "OPEN", "contract_name": "Paris", "bike_stands": 40, "available_bike_stands": 0, "available_bikes": 40, "optimal_criterion": 1.0, "last_update": "2016-01-24T19:20:42Z", "modified_date": "2016-01-24T19:26:26.778Z"}}, {"model": "api.station", "pk": 1022, "fields": {"name": "01022 - RUE DE LA PAIX", "address": "37 RUE CASANOVA - 75001 PARIS", "lat": 48.8682170168, "lng": 2.3304935114, "banking": true, "bonus": true, "status": "OPEN", "contract_name": "Paris", "bike_stands": 37, "available_bike_stands": 1, "available_bikes": 35, "optimal_criterion": 0.8918918918918919, "last_update": "2016-01-24T19:15:56Z", "modified_date": "2016-01-24T19:26:19.387Z"}}, {"model": "api.station", "pk": 1023, "fields": {"name": "01023 - ANDRE MALRAUX MUSEE DU LOUVRE", "address": "165 RUE SAINT HONORE - 75001 PARIS", "lat": 48.86349702, "lng": 2.33484632755, "banking": true, "bonus": true, "status": "OPEN", "contract_name": "Paris", "bike_stands": 22, "available_bike_stands": 5, "available_bikes": 13, "optimal_criterion": 0.18181818181818182, "last_update": "2016-01-24T19:22:25Z", "modified_date": "2016-01-24T19:26:25.510Z"}}, {"model": "api.station", "pk": 1024, "fields": {"name": "01024 - LOUVRE COQ HERON", "address": "20 RUE COQUILLIERE - 75001 PARIS", "lat": 48.863772832, "lng": 2.34270756198, "banking": true, "bonus": true, "status": "OPEN", "contract_name": "Paris", "bike_stands": 20, "available_bike_stands": 1, "available_bikes": 19, "optimal_criterion": 0.9, "last_update": "2016-01-24T19:23:10Z", "modified_date": "2016-01-24T19:26:25.417Z"}}, {"model": "api.station", "pk": 1025, "fields": {"name": "01025 - TEMPLE DE L'ORATOIRE", "address": "2 RUE DE L'ORATOIRE - 75001 PARIS", "lat": 48.8613894683, "lng": 2.34005523282, "banking": true, "bonus": true, "status": "OPEN", "contract_name": "Paris", "bike_stands": 18, "available_bike_stands": 3, "available_bikes": 15, "optimal_criterion": 0.6666666666666666, "last_update": "2016-01-24T19:23:38Z", "modified_date": "2016-01-24T19:26:24.098Z"}}, {"model": "api.station", "pk": 1026, "fields": {"name": "01026 - COLONEL DRIANT", "address": "PLACE DU LIEUTENANT HENRI KARCHER - 75001 PARIS", "lat": 48.8634305019, "lng": 2.34016976702, "banking": true, "bonus": true, "status": "OPEN", "contract_name": "Paris", "bike_stands": 31, "available_bike_stands": 12, "available_bikes": 19, "optimal_criterion": 0.22580645161290322, "last_update": "2016-01-24T19:23:20Z", "modified_date": "2016-01-24T19:26:23.555Z"}}, {"model": "api.station", "pk": 1027, "fields": {"name": "01027 - BERGER", "address": "49 RUE BERGER - 75001 PARIS", "lat": 48.862238717, "lng": 2.34196093796, "banking": true, "bonus": true, "status": "OPEN", "contract_name": "Paris", "bike_stands": 21, "available_bike_stands": 11, "available_bikes": 10, "optimal_criterion": -0.047619047619047616, "last_update": "2016-01-24T19:16:57Z", "modified_date": "2016-01-24T19:26:19.338Z"}}, {"model": "api.station", "pk": 1102, "fields": {"name": "01102 - FRANCAISE", "address": "6 RUE FRANCAISE - 75001 PARIS", "lat": 48.8640650469, "lng": 2.34759791272, "banking": true, "bonus": true, "status": "OPEN", "contract_name": "Paris", "bike_stands": 18, "available_bike_stands": 0, "available_bikes": 17, "optimal_criterion": 0.8888888888888888, "last_update": "2016-01-24T19:24:58Z", "modified_date": "2016-01-24T19:26:20.798Z"}}, {"model": "api.station", "pk": 1116, "fields": {"name": "01116 - OP\u00c9RA PYRAMIDES", "address": "4 RUE DE VENTADOUR - 75001 PARIS", "lat": 48.8668106533, "lng": 2.33438844825, "banking": true, "bonus": true, "status": "OPEN", "contract_name": "Paris", "bike_stands": 27, "available_bike_stands": 2, "available_bikes": 25, "optimal_criterion": 0.8518518518518519, "last_update": "2016-01-24T19:21:51Z", "modified_date": "2016-01-24T19:26:22.212Z"}}, {"model": "api.station", "pk": 2001, "fields": {"name": "02001 - SEBASTOPOL-GRENATA", "address": "12 RUE GRENETA - 75002 PARIS", "lat": 48.8652406217, "lng": 2.35166987369, "banking": true, "bonus": true, "status": "OPEN", "contract_name": "Paris", "bike_stands": 34, "available_bike_stands": 7, "available_bikes": 27, "optimal_criterion": 0.5882352941176471, "last_update": "2016-01-24T19:22:51Z", "modified_date": "2016-01-24T19:26:25.136Z"}}, {"model": "api.station", "pk": 2002, "fields": {"name": "02002 - MONTORGUEIL ETIENNE MARCEL", "address": "32 RUE ETIENNE MARCEL - 75002 PARIS", "lat": 48.8645823775, "lng": 2.34628211167, "banking": true, "bonus": true, "status": "OPEN", "contract_name": "Paris", "bike_stands": 28, "available_bike_stands": 1, "available_bikes": 27, "optimal_criterion": 0.9285714285714286, "last_update": "2016-01-24T19:22:11Z", "modified_date": "2016-01-24T19:26:22.659Z"}}, {"model": "api.station", "pk": 2003, "fields": {"name": "02003 - ALLEE PIERRE LAZAEFF", "address": "189 RUE SAINT DENIS - 75002 PARIS", "lat": 48.8661457465, "lng": 2.35084459529, "banking": true, "bonus": true, "status": "OPEN", "contract_name": "Paris", "bike_stands": 31, "available_bike_stands": 1, "available_bikes": 30, "optimal_criterion": 0.9354838709677419, "last_update": "2016-01-24T19:24:29Z", "modified_date": "2016-01-24T19:26:20.812Z"}}, {"model": "api.station", "pk": 2004, "fields": {"name": "02004 - REAUMUR MONTORGUEIL", "address": "83 ALLEE PIERRE LAZAREF - 75002 PARIS", "lat": 48.8669737142, "lng": 2.34863246544, "banking": true, "bonus": true, "status": "OPEN", "contract_name": "Paris", "bike_stands": 17, "available_bike_stands": 2, "available_bikes": 15, "optimal_criterion": 0.7647058823529411, "last_update": "2016-01-24T19:24:11Z", "modified_date": "2016-01-24T19:26:24.147Z"}}, {"model": "api.station", "pk": 2005, "fields": {"name": "02005 - MONTORGUEIL RUE MONTMARTRE VERSION 2", "address": "46 RUE DE MONTMARTRE - 75002 PARIS", "lat": 48.8650219458, "lng": 2.34506844014, "banking": true, "bonus": true, "status": "OPEN", "contract_name": "Paris", "bike_stands": 15, "available_bike_stands": 3, "available_bikes": 12, "optimal_criterion": 0.6, "last_update": "2016-01-24T19:20:19Z", "modified_date": "2016-01-24T19:26:25.597Z"}}, {"model": "api.station", "pk": 2006, "fields": {"name": "02006 - PLACE DES VICTOIRES", "address": "2 RUE D'ABOUKIR - 75002 PARIS", "lat": 48.8660026326, "lng": 2.34192041196, "banking": true, "bonus": true, "status": "OPEN", "contract_name": "Paris", "bike_stands": 24, "available_bike_stands": 15, "available_bikes": 8, "optimal_criterion": -0.3333333333333333, "last_update": "2016-01-24T19:25:11Z", "modified_date": "2016-01-24T19:26:21.623Z"}}, {"model": "api.station", "pk": 2007, "fields": {"name": "02007 - CHABANAIS", "address": "1 RUE CHABANAIS - 75002 PARIS", "lat": 48.8671234464, "lng": 2.33668660824, "banking": true, "bonus": true, "status": "OPEN", "contract_name": "Paris", "bike_stands": 28, "available_bike_stands": 2, "available_bikes": 26, "optimal_criterion": 0.8571428571428571, "last_update": "2016-01-24T19:24:06Z", "modified_date": "2016-01-24T19:26:24.508Z"}}, {"model": "api.station", "pk": 2008, "fields": {"name": "02008 - MAIRIE DU 2EME", "address": "11 RUE DE LA BANQUE - 75002 PARIS", "lat": 48.8672932628, "lng": 2.34056368636, "banking": true, "bonus": true, "status": "OPEN", "contract_name": "Paris", "bike_stands": 29, "available_bike_stands": 28, "available_bikes": 1, "optimal_criterion": -0.9310344827586207, "last_update": "2016-01-24T19:20:06Z", "modified_date": "2016-01-24T19:26:27.546Z"}}, {"model": "api.station", "pk": 2009, "fields": {"name": "02009 - BOURSE", "address": "1 RUE DES FILLES SAINT THOMAS - 75002 PARIS", "lat": 48.8688516894, "lng": 2.33973140109, "banking": true, "bonus": true, "status": "OPEN", "contract_name": "Paris", "bike_stands": 59, "available_bike_stands": 53, "available_bikes": 6, "optimal_criterion": -0.7966101694915254, "last_update": "2016-01-24T19:24:06Z", "modified_date": "2016-01-24T19:26:23.774Z"}}, {"model": "api.station", "pk": 2010, "fields": {"name": "02010 - BOULEVARD MONTMARTRE", "address": "21 RUE D'UZES - 75002 PARIS", "lat": 48.8707757573, "lng": 2.34316333439, "banking": true, "bonus": true, "status": "OPEN", "contract_name": "Paris", "bike_stands": 30, "available_bike_stands": 24, "available_bikes": 6, "optimal_criterion": -0.6, "last_update": "2016-01-24T19:19:43Z", "modified_date": "2016-01-24T19:26:26.991Z"}}, {"model": "api.station", "pk": 2011, "fields": {"name": "02011 - BIBLIOTHEQUE NATIONALE", "address": "71 RUE DE RICHELIEU - 75002 PARIS", "lat": 48.8682998892, "lng": 2.33808978228, "banking": true, "bonus": true, "status": "OPEN", "contract_name": "Paris", "bike_stands": 26, "available_bike_stands": 15, "available_bikes": 11, "optimal_criterion": -0.15384615384615385, "last_update": "2016-01-24T19:21:28Z", "modified_date": "2016-01-24T19:26:22.598Z"}}, {"model": "api.station", "pk": 2012, "fields": {"name": "02012 - QUATRE SEPTEMBRE", "address": "10 RUE DE CHOISEUL - 75002 PARIS", "lat": 48.869969734, "lng": 2.33603945554, "banking": true, "bonus": true, "status": "OPEN", "contract_name": "Paris", "bike_stands": 42, "available_bike_stands": 16, "available_bikes": 26, "optimal_criterion": 0.23809523809523808, "last_update": "2016-01-24T19:24:09Z", "modified_date": "2016-01-24T19:26:23.354Z"}}, {"model": "api.station", "pk": 2013, "fields": {"name": "02013 - RICHELIEU DROUOT", "address": "20 RUE FAVART - 75002 PARIS", "lat": 48.8714463539, "lng": 2.33829010585, "banking": true, "bonus": true, "status": "OPEN", "contract_name": "Paris", "bike_stands": 17, "available_bike_stands": 3, "available_bikes": 14, "optimal_criterion": 0.6470588235294118, "last_update": "2016-01-24T19:23:55Z", "modified_date": "2016-01-24T19:26:24.320Z"}}, {"model": "api.station", "pk": 2014, "fields": {"name": "02014 - SAINT AUGUSTIN", "address": "1  3 RUE DAUNOU - 75002 PARIS", "lat": 48.8691131526, "lng": 2.33251510527, "banking": true, "bonus": true, "status": "OPEN", "contract_name": "Paris", "bike_stands": 16, "available_bike_stands": 0, "available_bikes": 16, "optimal_criterion": 1.0, "last_update": "2016-01-24T19:20:27Z", "modified_date": "2016-01-24T19:26:26.704Z"}}, {"model": "api.station", "pk": 2015, "fields": {"name": "02015 - OPERA - CAPUCINES", "address": "25 RUE LOUIS LE GRAND - 75002 PARIS", "lat": 48.8705089372, "lng": 2.33405446194, "banking": true, "bonus": true, "status": "OPEN", "contract_name": "Paris", "bike_stands": 31, "available_bike_stands": 3, "available_bikes": 28, "optimal_criterion": 0.8064516129032258, "last_update": "2016-01-24T19:23:30Z", "modified_date": "2016-01-24T19:26:23.712Z"}}, {"model": "api.station", "pk": 2016, "fields": {"name": "02016 - ABOUKIR", "address": "108 RUE D'ABOUKIR - 75002 PARIS", "lat": 48.8686604815, "lng": 2.35018588824, "banking": true, "bonus": true, "status": "OPEN", "contract_name": "Paris", "bike_stands": 21, "available_bike_stands": 2, "available_bikes": 19, "optimal_criterion": 0.8095238095238095, "last_update": "2016-01-24T19:16:03Z", "modified_date": "2016-01-24T19:26:19.610Z"}}, {"model": "api.station", "pk": 2017, "fields": {"name": "02017 - CAIRE", "address": "40, rue du Caire - 75002 PARIS", "lat": 48.86789, "lng": 2.34925, "banking": true, "bonus": true, "status": "OPEN", "contract_name": "Paris", "bike_stands": 40, "available_bike_stands": 28, "available_bikes": 12, "optimal_criterion": -0.4, "last_update": "2016-01-24T19:22:02Z", "modified_date": "2016-01-24T19:26:22.622Z"}}, {"model": "api.station", "pk": 2020, "fields": {"name": "02020 - OPERA CASANOVA", "address": "02 RUE DANIEL CASANOVA - 75002 PARIS", "lat": 48.8676230781, "lng": 2.3332685931, "banking": true, "bonus": true, "status": "OPEN", "contract_name": "Paris", "bike_stands": 20, "available_bike_stands": 1, "available_bikes": 19, "optimal_criterion": 0.9, "last_update": "2016-01-24T19:18:26Z", "modified_date": "2016-01-24T19:26:27.823Z"}}, {"model": "api.station", "pk": 2021, "fields": {"name": "02021 - CLERY", "address": "4 RUE DE CLERY - 75002 PARIS", "lat": 48.8674674415, "lng": 2.34452661511, "banking": true, "bonus": true, "status": "OPEN", "contract_name": "Paris", "bike_stands": 43, "available_bike_stands": 38, "available_bikes": 5, "optimal_criterion": -0.7674418604651163, "last_update": "2016-01-24T19:19:30Z", "modified_date": "2016-01-24T19:26:27.482Z"}}, {"model": "api.station", "pk": 2022, "fields": {"name": "02022 - BONNE NOUVELLE SAINT FIACRE", "address": "20 RUE SAINT FIACRE - 75002 PARIS", "lat": 48.8707827795, "lng": 2.34590581139, "banking": true, "bonus": true, "status": "OPEN", "contract_name": "Paris", "bike_stands": 36, "available_bike_stands": 25, "available_bikes": 11, "optimal_criterion": -0.3888888888888889, "last_update": "2016-01-24T19:22:50Z", "modified_date": "2016-01-24T19:26:24.786Z"}}, {"model": "api.station", "pk": 2101, "fields": {"name": "02101 - BACHAUMONT", "address": "14 RUE BACHAUMONT - 75002 PARIS", "lat": 48.8660671501, "lng": 2.3454636527, "banking": true, "bonus": true, "status": "OPEN", "contract_name": "Paris", "bike_stands": 33, "available_bike_stands": 0, "available_bikes": 33, "optimal_criterion": 1.0, "last_update": "2016-01-24T19:21:38Z", "modified_date": "2016-01-24T19:26:22.104Z"}}, {"model": "api.station", "pk": 2102, "fields": {"name": "02102 - SAINT MARC", "address": "8 RUE SAINT MARC - 75002 PARIS", "lat": 48.870314764, "lng": 2.34187856663, "banking": true, "bonus": true, "status": "OPEN", "contract_name": "Paris", "bike_stands": 37, "available_bike_stands": 23, "available_bikes": 13, "optimal_criterion": -0.2972972972972973, "last_update": "2016-01-24T19:17:35Z", "modified_date": "2016-01-24T19:26:28.996Z"}}, {"model": "api.station", "pk": 2107, "fields": {"name": "02107 - THOREL", "address": "11 RUE THOREL - 75002 PARIS", "lat": 48.8700006172, "lng": 2.34899551805, "banking": true, "bonus": true, "status": "OPEN", "contract_name": "Paris", "bike_stands": 16, "available_bike_stands": 7, "available_bikes": 8, "optimal_criterion": 0.0, "last_update": "2016-01-24T19:17:44Z", "modified_date": "2016-01-24T19:26:28.568Z"}}, {"model": "api.station", "pk": 2108, "fields": {"name": "02108 - VIVIENNE", "address": "42 RUE VIVIENNE - 75002 PARIS", "lat": 48.8712422742, "lng": 2.34139499926, "banking": true, "bonus": true, "status": "OPEN", "contract_name": "Paris", "bike_stands": 38, "available_bike_stands": 21, "available_bikes": 17, "optimal_criterion": -0.10526315789473684, "last_update": "2016-01-24T19:22:46Z", "modified_date": "2016-01-24T19:26:25.473Z"}}, {"model": "api.station", "pk": 3001, "fields": {"name": "03001 - CHEMIN VERT BEAUMARCHAIS", "address": "69 BOULEVARD BEAUMARCHAIS - 75003 PARIS", "lat": 48.8580440569, "lng": 2.3678326593, "banking": true, "bonus": true, "status": "OPEN", "contract_name": "Paris", "bike_stands": 52, "available_bike_stands": 5, "available_bikes": 47, "optimal_criterion": 0.8076923076923077, "last_update": "2016-01-24T19:25:08Z", "modified_date": "2016-01-24T19:26:20.385Z"}}, {"model": "api.station", "pk": 3002, "fields": {"name": "03002 - SAINT GILLES", "address": "26 RUE SAINT GILLES - 75003 PARIS", "lat": 48.8581589568, "lng": 2.3647149921, "banking": true, "bonus": true, "status": "OPEN", "contract_name": "Paris", "bike_stands": 18, "available_bike_stands": 14, "available_bikes": 4, "optimal_criterion": -0.5555555555555556, "last_update": "2016-01-24T19:21:33Z", "modified_date": "2016-01-24T19:26:22.798Z"}}, {"model": "api.station", "pk": 3003, "fields": {"name": "03003 - TURENNE BRETAGNE", "address": "4 RUE DES FILLES DU CALVAIRE - 75003 PARIS", "lat": 48.862132235, "lng": 2.36495138689, "banking": true, "bonus": true, "status": "OPEN", "contract_name": "Paris", "bike_stands": 32, "available_bike_stands": 19, "available_bikes": 13, "optimal_criterion": -0.1875, "last_update": "2016-01-24T19:24:38Z", "modified_date": "2016-01-24T19:26:20.687Z"}}, {"model": "api.station", "pk": 3004, "fields": {"name": "03004 - REPUBLIQUE 23", "address": "19 PLACE DE LA REPUBLIQUE - 75003 PARIS", "lat": 48.86707, "lng": 2.36351, "banking": true, "bonus": true, "status": "OPEN", "contract_name": "Paris", "bike_stands": 18, "available_bike_stands": 2, "available_bikes": 16, "optimal_criterion": 0.7777777777777778, "last_update": "2016-01-24T19:24:30Z", "modified_date": "2016-01-24T19:26:20.662Z"}}, {"model": "api.station", "pk": 3005, "fields": {"name": "03005 - TURBIGO SAINTE ELISABETH", "address": "7 RUE SAINTE ELISABETH - 75003 PARIS", "lat": 48.8661372246, "lng": 2.35966114363, "banking": true, "bonus": true, "status": "OPEN", "contract_name": "Paris", "bike_stands": 33, "available_bike_stands": 20, "available_bikes": 13, "optimal_criterion": -0.21212121212121213, "last_update": "2016-01-24T19:22:40Z", "modified_date": "2016-01-24T19:26:25.183Z"}}, {"model": "api.station", "pk": 3006, "fields": {"name": "03006 - MAIRIE DU 3EME", "address": "10 RUE PERREE - 75003 PARIS", "lat": 48.8645308053, "lng": 2.36157981521, "banking": true, "bonus": true, "status": "OPEN", "contract_name": "Paris", "bike_stands": 34, "available_bike_stands": 16, "available_bikes": 18, "optimal_criterion": 0.058823529411764705, "last_update": "2016-01-24T19:24:52Z", "modified_date": "2016-01-24T19:26:21.183Z"}}, {"model": "api.station", "pk": 3007, "fields": {"name": "03007 - ARCHIVES PASTOURELLE", "address": "67 RUE DES ARCHIVES - 75003 PARIS", "lat": 48.8624012119, "lng": 2.35944703195, "banking": true, "bonus": true, "status": "OPEN", "contract_name": "Paris", "bike_stands": 28, "available_bike_stands": 3, "available_bikes": 25, "optimal_criterion": 0.7857142857142857, "last_update": "2016-01-24T19:22:20Z", "modified_date": "2016-01-24T19:26:24.615Z"}}, {"model": "api.station", "pk": 3008, "fields": {"name": "03008 - PERLE", "address": "22 RUE DE LA PERLE - 75003 PARIS", "lat": 48.8598466832, "lng": 2.36105048709, "banking": true, "bonus": true, "status": "OPEN", "contract_name": "Paris", "bike_stands": 18, "available_bike_stands": 8, "available_bikes": 9, "optimal_criterion": 0.0, "last_update": "2016-01-24T19:24:18Z", "modified_date": "2016-01-24T19:26:24.268Z"}}, {"model": "api.station", "pk": 3009, "fields": {"name": "03009 - TEMPLE 113", "address": "76 RUE DU TEMPLE - 75003 PARIS", "lat": 48.8615811577, "lng": 2.35660934144, "banking": true, "bonus": true, "status": "OPEN", "contract_name": "Paris", "bike_stands": 18, "available_bike_stands": 1, "available_bikes": 17, "optimal_criterion": 0.8888888888888888, "last_update": "2016-01-24T19:25:12Z", "modified_date": "2016-01-24T19:26:20.655Z"}}, {"model": "api.station", "pk": 3010, "fields": {"name": "03010 - BEAUBOURG", "address": "46 RUE BEAUBOURG - 75003 PARIS", "lat": 48.8624649804, "lng": 2.35423678142, "banking": true, "bonus": true, "status": "OPEN", "contract_name": "Paris", "bike_stands": 18, "available_bike_stands": 0, "available_bikes": 18, "optimal_criterion": 1.0, "last_update": "2016-01-24T19:21:06Z", "modified_date": "2016-01-24T19:26:26.551Z"}}, {"model": "api.station", "pk": 3011, "fields": {"name": "03011 - TURBIGO", "address": "55 RUE TURBIGO - 75003 PARIS", "lat": 48.8655841911, "lng": 2.35627844763, "banking": true, "bonus": true, "status": "OPEN", "contract_name": "Paris", "bike_stands": 31, "available_bike_stands": 6, "available_bikes": 25, "optimal_criterion": 0.6129032258064516, "last_update": "2016-01-24T19:24:29Z", "modified_date": "2016-01-24T19:26:20.291Z"}}, {"model": "api.station", "pk": 3012, "fields": {"name": "03012 - GAITE LYRIQUE", "address": "FACE 8 RUE SALOMON DE CAUS - 75003 PARIS", "lat": 48.8674979894, "lng": 2.35366081625, "banking": true, "bonus": true, "status": "OPEN", "contract_name": "Paris", "bike_stands": 24, "available_bike_stands": 5, "available_bikes": 19, "optimal_criterion": 0.5833333333333334, "last_update": "2016-01-24T19:18:55Z", "modified_date": "2016-01-24T19:26:27.909Z"}}, {"model": "api.station", "pk": 3013, "fields": {"name": "03013 - RUE DE SEVIGNE", "address": "36 RUE DE SEVIGNE - 75003 PARIS", "lat": 48.8569541481, "lng": 2.36289742023, "banking": true, "bonus": true, "status": "OPEN", "contract_name": "Paris", "bike_stands": 14, "available_bike_stands": 13, "available_bikes": 1, "optimal_criterion": -0.8571428571428571, "last_update": "2016-01-24T19:19:57Z", "modified_date": "2016-01-24T19:26:26.872Z"}}, {"model": "api.station", "pk": 3014, "fields": {"name": "03014 - GRENIER SAINT LAZARE", "address": "FACE 34 RUE GRENIER SAINT LAZARE - 75003 PARIS", "lat": 48.8630628327, "lng": 2.35283938072, "banking": true, "bonus": true, "status": "OPEN", "contract_name": "Paris", "bike_stands": 31, "available_bike_stands": 3, "available_bikes": 28, "optimal_criterion": 0.8064516129032258, "last_update": "2016-01-24T19:24:04Z", "modified_date": "2016-01-24T19:26:23.892Z"}}, {"model": "api.station", "pk": 3101, "fields": {"name": "03101 - PORTE SAINT MARTIN", "address": "62 RUE MESLAY - 75003 PARIS", "lat": 48.868636405, "lng": 2.35559159278, "banking": true, "bonus": true, "status": "OPEN", "contract_name": "Paris", "bike_stands": 34, "available_bike_stands": 11, "available_bikes": 23, "optimal_criterion": 0.35294117647058826, "last_update": "2016-01-24T19:23:20Z", "modified_date": "2016-01-24T19:26:23.728Z"}}, {"model": "api.station", "pk": 4001, "fields": {"name": "04001 - NOTRE DAME", "address": "10 RUE D'ARCOLE - 75004 PARIS", "lat": 48.8539841444, "lng": 2.34938004529, "banking": true, "bonus": true, "status": "OPEN", "contract_name": "Paris", "bike_stands": 32, "available_bike_stands": 11, "available_bikes": 21, "optimal_criterion": 0.3125, "last_update": "2016-01-24T19:24:48Z", "modified_date": "2016-01-24T19:26:21.268Z"}}, {"model": "api.station", "pk": 4002, "fields": {"name": "04002 - MARCHE AUX FLEURS", "address": "PLACE LOUIS LEPINE - 75004 PARIS", "lat": 48.8552533608, "lng": 2.34735644764, "banking": true, "bonus": true, "status": "OPEN", "contract_name": "Paris", "bike_stands": 24, "available_bike_stands": 1, "available_bikes": 23, "optimal_criterion": 0.9166666666666666, "last_update": "2016-01-24T19:22:21Z", "modified_date": "2016-01-24T19:26:24.711Z"}}, {"model": "api.station", "pk": 4003, "fields": {"name": "04003 - PONT SAINT LOUIS", "address": "1 QUAI AUX FLEURS - 75004 PARIS", "lat": 48.8529448879, "lng": 2.35208864944, "banking": true, "bonus": true, "status": "OPEN", "contract_name": "Paris", "bike_stands": 21, "available_bike_stands": 5, "available_bikes": 16, "optimal_criterion": 0.5238095238095238, "last_update": "2016-01-24T19:15:19Z", "modified_date": "2016-01-24T19:26:19.634Z"}}, {"model": "api.station", "pk": 4005, "fields": {"name": "04005 - SULLY MORLAND", "address": "2 QUAI DES CELESTINS - 75004 PARIS", "lat": 48.8512714821, "lng": 2.36243021298, "banking": true, "bonus": true, "status": "OPEN", "contract_name": "Paris", "bike_stands": 14, "available_bike_stands": 12, "available_bikes": 2, "optimal_criterion": -0.7142857142857143, "last_update": "2016-01-24T19:24:11Z", "modified_date": "2016-01-24T19:26:24.193Z"}}, {"model": "api.station", "pk": 4006, "fields": {"name": "04006 - BASSIN DE L'ARSENAL", "address": "FACE 1 BOULEVARD BOURBON - 75004 PARIS", "lat": 48.8477251257, "lng": 2.36593915313, "banking": true, "bonus": true, "status": "OPEN", "contract_name": "Paris", "bike_stands": 53, "available_bike_stands": 27, "available_bikes": 26, "optimal_criterion": -0.018867924528301886, "last_update": "2016-01-24T19:22:56Z", "modified_date": "2016-01-24T19:26:25.299Z"}}, {"model": "api.station", "pk": 4007, "fields": {"name": "04007 - BOURDON", "address": "BOULEVARD BOURDON - 75004 PARIS", "lat": 48.8525571174, "lng": 2.36824071942, "banking": true, "bonus": true, "status": "OPEN", "contract_name": "Paris", "bike_stands": 36, "available_bike_stands": 9, "available_bikes": 24, "optimal_criterion": 0.3333333333333333, "last_update": "2016-01-24T19:21:09Z", "modified_date": "2016-01-24T19:26:26.103Z"}}, {"model": "api.station", "pk": 4009, "fields": {"name": "04009 - VILLAGE SAINT PAUL", "address": "6 RUE SAINT PAUL - 75004 PARIS", "lat": 48.8527259722, "lng": 2.36087834343, "banking": true, "bonus": true, "status": "OPEN", "contract_name": "Paris", "bike_stands": 28, "available_bike_stands": 26, "available_bikes": 1, "optimal_criterion": -0.9285714285714286, "last_update": "2016-01-24T19:22:13Z", "modified_date": "2016-01-24T19:26:22.162Z"}}, {"model": "api.station", "pk": 4010, "fields": {"name": "04010 - SAINT PAUL PAV\u00c9E", "address": "105-109 TERRE PLEIN SAINT PAUL - 75004 PARIS", "lat": 48.855023999, "lng": 2.36120353876, "banking": true, "bonus": true, "status": "OPEN", "contract_name": "Paris", "bike_stands": 26, "available_bike_stands": 21, "available_bikes": 5, "optimal_criterion": -0.6153846153846154, "last_update": "2016-01-24T19:25:11Z", "modified_date": "2016-01-24T19:26:21.361Z"}}, {"model": "api.station", "pk": 4011, "fields": {"name": "04011 - PLACE DU BATAILLON FRANCAIS DE L'ONU", "address": "FACE 18 RUE DE L'HOTEL DE VILLE - 75004 PARIS", "lat": 48.8538141453, "lng": 2.35709265436, "banking": true, "bonus": true, "status": "OPEN", "contract_name": "Paris", "bike_stands": 36, "available_bike_stands": 9, "available_bikes": 27, "optimal_criterion": 0.5, "last_update": "2016-01-24T19:25:09Z", "modified_date": "2016-01-24T19:26:21.318Z"}}, {"model": "api.station", "pk": 4012, "fields": {"name": "04012 - ECOUFFES RIVOLI", "address": "2 RUE TIRON - 75004 PARIS", "lat": 48.8557966374, "lng": 2.35790788214, "banking": true, "bonus": true, "status": "OPEN", "contract_name": "Paris", "bike_stands": 28, "available_bike_stands": 6, "available_bikes": 22, "optimal_criterion": 0.5714285714285714, "last_update": "2016-01-24T19:24:53Z", "modified_date": "2016-01-24T19:26:20.284Z"}}, {"model": "api.station", "pk": 4013, "fields": {"name": "04013 - FRANCS BOURGEOIS", "address": "50 RUE VIEILLE DU TEMPLE - 75004 PARIS", "lat": 48.858510713, "lng": 2.35863357912, "banking": true, "bonus": true, "status": "OPEN", "contract_name": "Paris", "bike_stands": 27, "available_bike_stands": 12, "available_bikes": 15, "optimal_criterion": 0.1111111111111111, "last_update": "2016-01-24T19:22:19Z", "modified_date": "2016-01-24T19:26:23.040Z"}}, {"model": "api.station", "pk": 4014, "fields": {"name": "04014 - ARCHIVES BLANCS MANTEAUX", "address": "29 RUE DES BLANCS MANTEAUX - 75004 PARIS", "lat": 48.8594027196, "lng": 2.35592748654, "banking": true, "bonus": true, "status": "OPEN", "contract_name": "Paris", "bike_stands": 30, "available_bike_stands": 2, "available_bikes": 28, "optimal_criterion": 0.8666666666666667, "last_update": "2016-01-24T19:24:51Z", "modified_date": "2016-01-24T19:26:20.446Z"}}, {"model": "api.station", "pk": 4015, "fields": {"name": "04015 - MAIRIE DU 4 EME", "address": "25 RUE DU PONT LOUIS PHILIPPE - 75004 PARIS", "lat": 48.8559658562, "lng": 2.35638115487, "banking": true, "bonus": true, "status": "OPEN", "contract_name": "Paris", "bike_stands": 45, "available_bike_stands": 23, "available_bikes": 21, "optimal_criterion": -0.06666666666666667, "last_update": "2016-01-24T19:17:40Z", "modified_date": "2016-01-24T19:26:28.632Z"}}, {"model": "api.station", "pk": 4016, "fields": {"name": "04016 - LOBAU", "address": "3 RUE LOBAU - 75004 PARIS", "lat": 48.8562467217, "lng": 2.35328134461, "banking": true, "bonus": true, "status": "OPEN", "contract_name": "Paris", "bike_stands": 60, "available_bike_stands": 1, "available_bikes": 59, "optimal_criterion": 0.9666666666666667, "last_update": "2016-01-24T19:21:49Z", "modified_date": "2016-01-24T19:26:22.975Z"}}, {"model": "api.station", "pk": 4017, "fields": {"name": "04017 - PLACE DE L'HOTEL DE VILLE", "address": "11 PLACE DE L'HOTEL DE VILLE - 75004 PARIS", "lat": 48.857232, "lng": 2.351621, "banking": true, "bonus": true, "status": "OPEN", "contract_name": "Paris", "bike_stands": 14, "available_bike_stands": 10, "available_bikes": 3, "optimal_criterion": -0.5714285714285714, "last_update": "2016-01-24T19:24:20Z", "modified_date": "2016-01-24T19:26:21.354Z"}}, {"model": "api.station", "pk": 4018, "fields": {"name": "04018 - RIVOLI SEBASTOPOL", "address": "1 RUE SAINT BON - 75004 PARIS", "lat": 48.8579996433, "lng": 2.35021728098, "banking": true, "bonus": true, "status": "OPEN", "contract_name": "Paris", "bike_stands": 19, "available_bike_stands": 4, "available_bikes": 15, "optimal_criterion": 0.5789473684210527, "last_update": "2016-01-24T19:24:43Z", "modified_date": "2016-01-24T19:26:20.753Z"}}, {"model": "api.station", "pk": 4019, "fields": {"name": "04019 - BEAUBOURG SAINT MERRY", "address": "4 RUE DU CLOITRE SAINT MERRI - 75004 PARIS", "lat": 48.8588289882, "lng": 2.35189147062, "banking": true, "bonus": true, "status": "OPEN", "contract_name": "Paris", "bike_stands": 32, "available_bike_stands": 10, "available_bikes": 22, "optimal_criterion": 0.375, "last_update": "2016-01-24T19:24:56Z", "modified_date": "2016-01-24T19:26:21.332Z"}}, {"model": "api.station", "pk": 4020, "fields": {"name": "04020 - BEAUBOURG PLACE MICHELET", "address": "FACE 27 RUE QUINCAMPOIX - 75004 PARIS", "lat": 48.8600883261, "lng": 2.35014833592, "banking": true, "bonus": true, "status": "OPEN", "contract_name": "Paris", "bike_stands": 28, "available_bike_stands": 5, "available_bikes": 23, "optimal_criterion": 0.6428571428571429, "last_update": "2016-01-24T19:25:07Z", "modified_date": "2016-01-24T19:26:20.221Z"}}, {"model": "api.station", "pk": 4021, "fields": {"name": "04021 - BEAUBOURG RAMBUTEAU", "address": "49 RUE RAMBUTEAU - 75004 PARIS", "lat": 48.8614190722, "lng": 2.35258144286, "banking": true, "bonus": true, "status": "OPEN", "contract_name": "Paris", "bike_stands": 26, "available_bike_stands": 13, "available_bikes": 13, "optimal_criterion": 0.0, "last_update": "2016-01-24T19:25:17Z", "modified_date": "2016-01-24T19:26:21.293Z"}}, {"model": "api.station", "pk": 4101, "fields": {"name": "04101 - BASTILLE", "address": "11 RUE DE LA BASTILLE - 75004 PARIS", "lat": 48.853797345, "lng": 2.36840080696, "banking": true, "bonus": true, "status": "OPEN", "contract_name": "Paris", "bike_stands": 20, "available_bike_stands": 0, "available_bikes": 20, "optimal_criterion": 1.0, "last_update": "2016-01-24T19:15:59Z", "modified_date": "2016-01-24T19:26:19.954Z"}}, {"model": "api.station", "pk": 4103, "fields": {"name": "04103 - HOTEL DE VILLE", "address": "1 RUE DES ARCHIVES - 75004 PARIS", "lat": 48.8572037877, "lng": 2.35397627362, "banking": true, "bonus": true, "status": "OPEN", "contract_name": "Paris", "bike_stands": 25, "available_bike_stands": 2, "available_bikes": 23, "optimal_criterion": 0.84, "last_update": "2016-01-24T19:21:46Z", "modified_date": "2016-01-24T19:26:22.097Z"}}, {"model": "api.station", "pk": 4104, "fields": {"name": "04104 - SEBASTOPOL RAMBUTEAU", "address": "FACE 40 BOULEVARD SEBASTOPOL - 75004 PARIS", "lat": 48.8618831022, "lng": 2.3502209761, "banking": true, "bonus": true, "status": "OPEN", "contract_name": "Paris", "bike_stands": 16, "available_bike_stands": 2, "available_bikes": 14, "optimal_criterion": 0.75, "last_update": "2016-01-24T19:24:58Z", "modified_date": "2016-01-24T19:26:21.531Z"}}, {"model": "api.station", "pk": 4105, "fields": {"name": "04105 - MORLAND", "address": "17 BOULEVARD DU MORLAND - 75004 PARIS", "lat": 48.8499600353, "lng": 2.36323986872, "banking": true, "bonus": true, "status": "OPEN", "contract_name": "Paris", "bike_stands": 36, "available_bike_stands": 3, "available_bikes": 33, "optimal_criterion": 0.8333333333333334, "last_update": "2016-01-24T19:20:15Z", "modified_date": "2016-01-24T19:26:26.955Z"}}, {"model": "api.station", "pk": 4107, "fields": {"name": "04107 - BEAUMARCHAIS", "address": "27 BOULEVARD BEAUMARCHAIS - 75004 PARIS", "lat": 48.8555013577, "lng": 2.36842906993, "banking": true, "bonus": true, "status": "OPEN", "contract_name": "Paris", "bike_stands": 18, "available_bike_stands": 8, "available_bikes": 7, "optimal_criterion": -0.2222222222222222, "last_update": "2016-01-24T19:15:31Z", "modified_date": "2016-01-24T19:26:19.439Z"}}, {"model": "api.station", "pk": 5001, "fields": {"name": "05001 - SAINT GERMAIN HARPE", "address": "32 RUE DE LA HARPE - 75005 PARIS", "lat": 48.85158134, "lng": 2.34370453672, "banking": true, "bonus": true, "status": "OPEN", "contract_name": "Paris", "bike_stands": 43, "available_bike_stands": 5, "available_bikes": 35, "optimal_criterion": 0.627906976744186, "last_update": "2016-01-24T19:22:12Z", "modified_date": "2016-01-24T19:26:22.719Z"}}, {"model": "api.station", "pk": 5002, "fields": {"name": "05002 - SAINT JACQUES", "address": "20 RUE SOMMERARD - 75005 PARIS", "lat": 48.8503104329, "lng": 2.3450158353, "banking": true, "bonus": true, "status": "OPEN", "contract_name": "Paris", "bike_stands": 35, "available_bike_stands": 7, "available_bikes": 26, "optimal_criterion": 0.4857142857142857, "last_update": "2016-01-24T19:20:35Z", "modified_date": "2016-01-24T19:26:25.611Z"}}, {"model": "api.station", "pk": 5003, "fields": {"name": "05003 - GAY LUSSAC LE GOFF", "address": "9 RUE LE GOFF - 75005 PARIS", "lat": 48.8462392817, "lng": 2.34132491601, "banking": true, "bonus": true, "status": "OPEN", "contract_name": "Paris", "bike_stands": 35, "available_bike_stands": 32, "available_bikes": 2, "optimal_criterion": -0.8857142857142857, "last_update": "2016-01-24T19:22:57Z", "modified_date": "2016-01-24T19:26:24.963Z"}}, {"model": "api.station", "pk": 5004, "fields": {"name": "05004 - SAINT JACQUES VAL DE GRACE", "address": "272 RUE SAINT JACQUES - 75005 PARIS", "lat": 48.8418659565, "lng": 2.34120202666, "banking": true, "bonus": true, "status": "OPEN", "contract_name": "Paris", "bike_stands": 19, "available_bike_stands": 19, "available_bikes": 0, "optimal_criterion": -1.0, "last_update": "2016-01-24T19:23:04Z", "modified_date": "2016-01-24T19:26:25.154Z"}}, {"model": "api.station", "pk": 5005, "fields": {"name": "05005 - SAINT JACQUES GAY LUSSAC", "address": "27 RUE GAY LUSSAC - 75005 PARIS", "lat": 48.8447302561, "lng": 2.34192394487, "banking": true, "bonus": true, "status": "OPEN", "contract_name": "Paris", "bike_stands": 24, "available_bike_stands": 21, "available_bikes": 0, "optimal_criterion": -1.0, "last_update": "2016-01-24T19:20:47Z", "modified_date": "2016-01-24T19:26:29.038Z"}}, {"model": "api.station", "pk": 5006, "fields": {"name": "05006 - SAINT JACQUES SOUFFLOT", "address": "174 RUE SAINT JACQUES - 75005 PARIS", "lat": 48.8465169206, "lng": 2.34312380337, "banking": true, "bonus": true, "status": "OPEN", "contract_name": "Paris", "bike_stands": 13, "available_bike_stands": 13, "available_bikes": 0, "optimal_criterion": -1.0, "last_update": "2016-01-24T19:17:19Z", "modified_date": "2016-01-24T19:26:28.933Z"}}, {"model": "api.station", "pk": 5007, "fields": {"name": "05007 - ECOLES CARMES", "address": "39 RUE DES ECOLES - 75005 PARIS", "lat": 48.8489190079, "lng": 2.34720132952, "banking": true, "bonus": true, "status": "OPEN", "contract_name": "Paris", "bike_stands": 37, "available_bike_stands": 9, "available_bikes": 26, "optimal_criterion": 0.40540540540540543, "last_update": "2016-01-24T19:22:31Z", "modified_date": "2016-01-24T19:26:25.481Z"}}, {"model": "api.station", "pk": 5008, "fields": {"name": "05008 - ST GERMAIN-DANTE", "address": "9 RUE DE DANTE - 75005 PARIS", "lat": 48.8509772298, "lng": 2.34607682591, "banking": true, "bonus": true, "status": "OPEN", "contract_name": "Paris", "bike_stands": 20, "available_bike_stands": 0, "available_bikes": 19, "optimal_criterion": 0.9, "last_update": "2016-01-24T19:19:15Z", "modified_date": "2016-01-24T19:26:27.883Z"}}, {"model": "api.station", "pk": 5009, "fields": {"name": "05009 - SQUARE VIVIANI", "address": "6 RUE DU FOUARRE - 75005 PARIS", "lat": 48.8516511794, "lng": 2.34746333452, "banking": true, "bonus": true, "status": "OPEN", "contract_name": "Paris", "bike_stands": 16, "available_bike_stands": 4, "available_bikes": 12, "optimal_criterion": 0.5, "last_update": "2016-01-24T19:21:05Z", "modified_date": "2016-01-24T19:26:26.178Z"}}, {"model": "api.station", "pk": 5010, "fields": {"name": "05010 - SAINT MICHEL HENRI BARBUSSE", "address": "1 RUE HENRI BARBUSSE - 75005 PARIS", "lat": 48.8437569813, "lng": 2.33930672198, "banking": true, "bonus": true, "status": "OPEN", "contract_name": "Paris", "bike_stands": 15, "available_bike_stands": 13, "available_bikes": 2, "optimal_criterion": -0.7333333333333333, "last_update": "2016-01-24T19:25:13Z", "modified_date": "2016-01-24T19:26:20.903Z"}}, {"model": "api.station", "pk": 5012, "fields": {"name": "05012 - ULM - LHOMOND", "address": "20 RUE DE L'ESTRAPADE - 75005 PARIS", "lat": 48.845143494, "lng": 2.34541268121, "banking": true, "bonus": true, "status": "OPEN", "contract_name": "Paris", "bike_stands": 15, "available_bike_stands": 14, "available_bikes": 1, "optimal_criterion": -0.8666666666666667, "last_update": "2016-01-24T19:23:39Z", "modified_date": "2016-01-24T19:26:24.291Z"}}, {"model": "api.station", "pk": 5013, "fields": {"name": "05013 - ULM ERASME", "address": "13 RUE ERASME - 75005 PARIS", "lat": 48.8425479497, "lng": 2.34459664993, "banking": true, "bonus": true, "status": "OPEN", "contract_name": "Paris", "bike_stands": 20, "available_bike_stands": 18, "available_bikes": 2, "optimal_criterion": -0.8, "last_update": "2016-01-24T19:22:56Z", "modified_date": "2016-01-24T19:26:24.629Z"}}, {"model": "api.station", "pk": 5014, "fields": {"name": "05014 - CALVIN", "address": "8 RUE JEAN CALVIN - 75005 PARIS", "lat": 48.8416327086, "lng": 2.34855201812, "banking": true, "bonus": true, "status": "OPEN", "contract_name": "Paris", "bike_stands": 28, "available_bike_stands": 27, "available_bikes": 1, "optimal_criterion": -0.9285714285714286, "last_update": "2016-01-24T19:25:06Z", "modified_date": "2016-01-24T19:26:21.025Z"}}, {"model": "api.station", "pk": 5015, "fields": {"name": "05015 - MOUFFETARD EPEE DE BOIS", "address": "12 RUE DE L'EPEE DE BOIS - 75005 PARIS", "lat": 48.8415076374, "lng": 2.34998304703, "banking": true, "bonus": true, "status": "OPEN", "contract_name": "Paris", "bike_stands": 63, "available_bike_stands": 52, "available_bikes": 11, "optimal_criterion": -0.6507936507936508, "last_update": "2016-01-24T19:23:25Z", "modified_date": "2016-01-24T19:26:23.852Z"}}, {"model": "api.station", "pk": 5016, "fields": {"name": "05016 - CONTRESCARPE-THOUIN", "address": "1 RUE THOUIN - 75005 PARIS", "lat": 48.8450622564, "lng": 2.34949778986, "banking": true, "bonus": true, "status": "OPEN", "contract_name": "Paris", "bike_stands": 16, "available_bike_stands": 16, "available_bikes": 0, "optimal_criterion": -1.0, "last_update": "2016-01-24T19:22:57Z", "modified_date": "2016-01-24T19:26:25.394Z"}}, {"model": "api.station", "pk": 5017, "fields": {"name": "05017 - DESCARTES", "address": "17 RUE DESCARTES - 75005 PARIS", "lat": 48.8466018658, "lng": 2.34901473289, "banking": true, "bonus": true, "status": "OPEN", "contract_name": "Paris", "bike_stands": 31, "available_bike_stands": 30, "available_bikes": 0, "optimal_criterion": -1.0, "last_update": "2016-01-24T19:24:09Z", "modified_date": "2016-01-24T19:26:23.817Z"}}, {"model": "api.station", "pk": 5018, "fields": {"name": "05018 - MUTUALITE", "address": "20 RUE MONGE - 75005 PARIS", "lat": 48.8483857647, "lng": 2.35016993902, "banking": true, "bonus": true, "status": "OPEN", "contract_name": "Paris", "bike_stands": 37, "available_bike_stands": 7, "available_bikes": 29, "optimal_criterion": 0.5675675675675675, "last_update": "2016-01-24T19:24:46Z", "modified_date": "2016-01-24T19:26:20.400Z"}}, {"model": "api.station", "pk": 5019, "fields": {"name": "05019 - POISSY", "address": "8-10 RUE DE POISSY - 75005 PARIS", "lat": 48.8496904114, "lng": 2.3529701836, "banking": true, "bonus": true, "status": "OPEN", "contract_name": "Paris", "bike_stands": 25, "available_bike_stands": 4, "available_bikes": 17, "optimal_criterion": 0.36, "last_update": "2016-01-24T19:25:18Z", "modified_date": "2016-01-24T19:26:20.917Z"}}, {"model": "api.station", "pk": 5020, "fields": {"name": "05020 - PONT DE SULLY RIVE GAUCHE", "address": "03 RUE DES FOSSES SAINT BERNARD - 75005 PARIS", "lat": 48.8491596892, "lng": 2.35614032748, "banking": true, "bonus": true, "status": "OPEN", "contract_name": "Paris", "bike_stands": 21, "available_bike_stands": 9, "available_bikes": 12, "optimal_criterion": 0.14285714285714285, "last_update": "2016-01-24T19:17:05Z", "modified_date": "2016-01-24T19:26:19.246Z"}}, {"model": "api.station", "pk": 5021, "fields": {"name": "05021 - JUSSIEU", "address": "41 RUE JUSSIEU - 75005 PARIS", "lat": 48.8471846412, "lng": 2.35339837969, "banking": true, "bonus": true, "status": "OPEN", "contract_name": "Paris", "bike_stands": 36, "available_bike_stands": 3, "available_bikes": 31, "optimal_criterion": 0.7222222222222222, "last_update": "2016-01-24T19:23:36Z", "modified_date": "2016-01-24T19:26:23.645Z"}}, {"model": "api.station", "pk": 5022, "fields": {"name": "05022 - CARDINAL LEMOINE", "address": "40 RUE BOU LANGERS - 75005 PARIS", "lat": 48.8462950317, "lng": 2.35222292161, "banking": true, "bonus": true, "status": "OPEN", "contract_name": "Paris", "bike_stands": 17, "available_bike_stands": 1, "available_bikes": 16, "optimal_criterion": 0.8823529411764706, "last_update": "2016-01-24T19:20:20Z", "modified_date": "2016-01-24T19:26:25.740Z"}}, {"model": "api.station", "pk": 5023, "fields": {"name": "05023 - PLACE JUSSIEU", "address": "13 RUE JUSSIEU - 75005 PARIS", "lat": 48.8456168785, "lng": 2.3557455, "banking": true, "bonus": true, "status": "OPEN", "contract_name": "Paris", "bike_stands": 24, "available_bike_stands": 4, "available_bikes": 20, "optimal_criterion": 0.6666666666666666, "last_update": "2016-01-24T19:16:30Z", "modified_date": "2016-01-24T19:26:18.975Z"}}, {"model": "api.station", "pk": 5024, "fields": {"name": "05024 - PLACE MONGE", "address": "4 RUE DOLOMIEU - 75005 PARIS", "lat": 48.842735043, "lng": 2.35247243722, "banking": true, "bonus": true, "status": "OPEN", "contract_name": "Paris", "bike_stands": 21, "available_bike_stands": 12, "available_bikes": 9, "optimal_criterion": -0.14285714285714285, "last_update": "2016-01-24T19:25:11Z", "modified_date": "2016-01-24T19:26:20.313Z"}}, {"model": "api.station", "pk": 5026, "fields": {"name": "05026 - MOUFFETARD SAINT MEDARD", "address": "3 RUE PASCAL - 75005 PARIS", "lat": 48.8389938245, "lng": 2.34993205296, "banking": true, "bonus": true, "status": "OPEN", "contract_name": "Paris", "bike_stands": 49, "available_bike_stands": 7, "available_bikes": 39, "optimal_criterion": 0.5918367346938775, "last_update": "2016-01-24T19:22:40Z", "modified_date": "2016-01-24T19:26:24.877Z"}}, {"model": "api.station", "pk": 5027, "fields": {"name": "05027 - GOBELINS", "address": "22 AVENUE DES GOBELINS - 75005 PARIS", "lat": 48.8371260386, "lng": 2.35143332977, "banking": true, "bonus": true, "status": "OPEN", "contract_name": "Paris", "bike_stands": 40, "available_bike_stands": 4, "available_bikes": 36, "optimal_criterion": 0.8, "last_update": "2016-01-24T19:19:46Z", "modified_date": "2016-01-24T19:26:26.840Z"}}, {"model": "api.station", "pk": 5028, "fields": {"name": "05028 - CENSIER BUFFON", "address": "6 RUE CENSIER - 75005 PARIS", "lat": 48.841080022, "lng": 2.35543071424, "banking": true, "bonus": true, "status": "OPEN", "contract_name": "Paris", "bike_stands": 55, "available_bike_stands": 8, "available_bikes": 41, "optimal_criterion": 0.4909090909090909, "last_update": "2016-01-24T19:20:07Z", "modified_date": "2016-01-24T19:26:27.411Z"}}, {"model": "api.station", "pk": 5029, "fields": {"name": "05029 - PORT ROYAL", "address": "FACE 41 AVENUE GEORGES BERNANOS - 75005 PARIS", "lat": 48.8401089567, "lng": 2.33729688974, "banking": true, "bonus": true, "status": "OPEN", "contract_name": "Paris", "bike_stands": 30, "available_bike_stands": 29, "available_bikes": 1, "optimal_criterion": -0.9333333333333333, "last_update": "2016-01-24T19:21:22Z", "modified_date": "2016-01-24T19:26:22.120Z"}}, {"model": "api.station", "pk": 5030, "fields": {"name": "05030 - SORBONNE", "address": "5 RUE DE LA SORBONNE - 75005 PARIS", "lat": 48.8497703706, "lng": 2.34357357573, "banking": true, "bonus": true, "status": "OPEN", "contract_name": "Paris", "bike_stands": 50, "available_bike_stands": 39, "available_bikes": 11, "optimal_criterion": -0.56, "last_update": "2016-01-24T19:20:56Z", "modified_date": "2016-01-24T19:26:26.321Z"}}, {"model": "api.station", "pk": 5031, "fields": {"name": "05031 - LACEPEDE", "address": "2 RUE LACEPEDE - 75005 PARIS", "lat": 48.8436748454, "lng": 2.35461598268, "banking": true, "bonus": true, "status": "OPEN", "contract_name": "Paris", "bike_stands": 55, "available_bike_stands": 1, "available_bikes": 54, "optimal_criterion": 0.9636363636363636, "last_update": "2016-01-24T19:16:14Z", "modified_date": "2016-01-24T19:26:19.495Z"}}, {"model": "api.station", "pk": 5032, "fields": {"name": "05032 - PANTHEON CARMES", "address": "2 RUE VALETTE - 75005 PARIS", "lat": 48.8469867528, "lng": 2.34649965376, "banking": true, "bonus": true, "status": "OPEN", "contract_name": "Paris", "bike_stands": 37, "available_bike_stands": 37, "available_bikes": 0, "optimal_criterion": -1.0, "last_update": "2016-01-24T19:21:15Z", "modified_date": "2016-01-24T19:26:26.155Z"}}, {"model": "api.station", "pk": 5033, "fields": {"name": "05033 - SAINT SEVERIN", "address": "42 RUE SAINT SEVERIN - 75005 PARIS", "lat": 48.8527056477, "lng": 2.34413776325, "banking": true, "bonus": true, "status": "OPEN", "contract_name": "Paris", "bike_stands": 30, "available_bike_stands": 2, "available_bikes": 26, "optimal_criterion": 0.7333333333333333, "last_update": "2016-01-24T19:22:40Z", "modified_date": "2016-01-24T19:26:25.207Z"}}, {"model": "api.station", "pk": 5034, "fields": {"name": "05034 - CENSIER", "address": "21 RUE CENSIER - 75005 PARIS", "lat": 48.8405086637, "lng": 2.35371355203, "banking": true, "bonus": true, "status": "OPEN", "contract_name": "Paris", "bike_stands": 69, "available_bike_stands": 3, "available_bikes": 65, "optimal_criterion": 0.8840579710144928, "last_update": "2016-01-24T19:15:54Z", "modified_date": "2016-01-24T19:26:19.693Z"}}, {"model": "api.station", "pk": 5035, "fields": {"name": "05035 - BUFFON AUSTERLITZ", "address": "1 RUE BUFFON - 75005 PARIS", "lat": 48.8431581782, "lng": 2.36374844464, "banking": true, "bonus": true, "status": "OPEN", "contract_name": "Paris", "bike_stands": 24, "available_bike_stands": 10, "available_bikes": 13, "optimal_criterion": 0.08333333333333333, "last_update": "2016-01-24T19:24:38Z", "modified_date": "2016-01-24T19:26:21.828Z"}}, {"model": "api.station", "pk": 5104, "fields": {"name": "05104 - BUFFON", "address": "47 RUE BUFFON - 75005 PARIS", "lat": 48.8419161798, "lng": 2.35891268132, "banking": true, "bonus": true, "status": "OPEN", "contract_name": "Paris", "bike_stands": 55, "available_bike_stands": 5, "available_bikes": 50, "optimal_criterion": 0.8181818181818182, "last_update": "2016-01-24T19:20:17Z", "modified_date": "2016-01-24T19:26:26.798Z"}}, {"model": "api.station", "pk": 5105, "fields": {"name": "05105 - GEOFFROY SAINT HILAIRE", "address": "8 RUE GEOFFROY SAINT HILAIRE - 75005 PARIS", "lat": 48.8390782642, "lng": 2.35687734067, "banking": true, "bonus": true, "status": "OPEN", "contract_name": "Paris", "bike_stands": 17, "available_bike_stands": 2, "available_bikes": 14, "optimal_criterion": 0.6470588235294118, "last_update": "2016-01-24T19:15:48Z", "modified_date": "2016-01-24T19:26:19.812Z"}}, {"model": "api.station", "pk": 5106, "fields": {"name": "05106 - CUJAS", "address": "22 RUE CUJAS - 75005 PARIS", "lat": 48.8481913486, "lng": 2.34183165485, "banking": true, "bonus": true, "status": "OPEN", "contract_name": "Paris", "bike_stands": 19, "available_bike_stands": 18, "available_bikes": 1, "optimal_criterion": -0.8947368421052632, "last_update": "2016-01-24T19:23:26Z", "modified_date": "2016-01-24T19:26:24.495Z"}}, {"model": "api.station", "pk": 5107, "fields": {"name": "05107 - PONTOISE", "address": "1 RUE DE PONTOISE - 75005 PARIS", "lat": 48.8504580092, "lng": 2.35245427549, "banking": true, "bonus": true, "status": "OPEN", "contract_name": "Paris", "bike_stands": 23, "available_bike_stands": 3, "available_bikes": 20, "optimal_criterion": 0.7391304347826086, "last_update": "2016-01-24T19:24:23Z", "modified_date": "2016-01-24T19:26:21.011Z"}}, {"model": "api.station", "pk": 5110, "fields": {"name": "05110 - LACEPEDE", "address": "27 RUE LACEPEDE - 75005 PARIS", "lat": 48.8438603532, "lng": 2.35190222528, "banking": true, "bonus": true, "status": "OPEN", "contract_name": "Paris", "bike_stands": 23, "available_bike_stands": 16, "available_bikes": 7, "optimal_criterion": -0.391304347826087, "last_update": "2016-01-24T19:21:12Z", "modified_date": "2016-01-24T19:26:26.755Z"}}, {"model": "api.station", "pk": 6001, "fields": {"name": "06001 - INSTITUT", "address": "5 QUAI MALAQAIS - 75006 PARIS", "lat": 48.8576156786, "lng": 2.33583135304, "banking": true, "bonus": true, "status": "OPEN", "contract_name": "Paris", "bike_stands": 17, "available_bike_stands": 3, "available_bikes": 11, "optimal_criterion": 0.29411764705882354, "last_update": "2016-01-24T19:14:49Z", "modified_date": "2016-01-24T19:26:20.042Z"}}, {"model": "api.station", "pk": 6002, "fields": {"name": "06002 - SAINT P\u00c8RES", "address": "1 RUE SAINT BENOIT - 75006 PARIS", "lat": 48.8554999844, "lng": 2.33344522003, "banking": true, "bonus": true, "status": "OPEN", "contract_name": "Paris", "bike_stands": 23, "available_bike_stands": 4, "available_bikes": 19, "optimal_criterion": 0.6521739130434783, "last_update": "2016-01-24T19:23:37Z", "modified_date": "2016-01-24T19:26:24.000Z"}}, {"model": "api.station", "pk": 6003, "fields": {"name": "06003 - SAINT SULPICE", "address": "15 RUE DU VIEUX COLOMBIER - 75006 PARIS", "lat": 48.8516478481, "lng": 2.33081707439, "banking": true, "bonus": true, "status": "OPEN", "contract_name": "Paris", "bike_stands": 21, "available_bike_stands": 16, "available_bikes": 5, "optimal_criterion": -0.5238095238095238, "last_update": "2016-01-24T19:20:20Z", "modified_date": "2016-01-24T19:26:26.013Z"}}, {"model": "api.station", "pk": 6004, "fields": {"name": "06004 - REGARD", "address": "19 RUE DU REGARD - 75006 PARIS", "lat": 48.8475178294, "lng": 2.32697330559, "banking": true, "bonus": true, "status": "OPEN", "contract_name": "Paris", "bike_stands": 44, "available_bike_stands": 39, "available_bikes": 5, "optimal_criterion": -0.7727272727272727, "last_update": "2016-01-24T19:23:05Z", "modified_date": "2016-01-24T19:26:25.373Z"}}, {"model": "api.station", "pk": 6005, "fields": {"name": "06005 - MONTPARNASSE", "address": "40 RUE DU MONTPARNASSE - 75006 PARIS", "lat": 48.843295457, "lng": 2.32654113413, "banking": true, "bonus": true, "status": "OPEN", "contract_name": "Paris", "bike_stands": 47, "available_bike_stands": 28, "available_bikes": 19, "optimal_criterion": -0.19148936170212766, "last_update": "2016-01-24T19:24:38Z", "modified_date": "2016-01-24T19:26:21.630Z"}}, {"model": "api.station", "pk": 6006, "fields": {"name": "06006 - NOTRE DAME DES CHAMPS", "address": "41 RUE NOTRE DAME DES CHAMPS - 75006 PARIS", "lat": 48.8447992886, "lng": 2.32933775589, "banking": true, "bonus": true, "status": "OPEN", "contract_name": "Paris", "bike_stands": 19, "available_bike_stands": 14, "available_bikes": 2, "optimal_criterion": -0.7894736842105263, "last_update": "2016-01-24T19:20:55Z", "modified_date": "2016-01-24T19:26:25.583Z"}}, {"model": "api.station", "pk": 6007, "fields": {"name": "06007 - VAVIN", "address": "18 RUE BREA - 75006 PARIS", "lat": 48.8427384783, "lng": 2.32979422176, "banking": true, "bonus": true, "status": "OPEN", "contract_name": "Paris", "bike_stands": 23, "available_bike_stands": 15, "available_bikes": 8, "optimal_criterion": -0.30434782608695654, "last_update": "2016-01-24T19:21:51Z", "modified_date": "2016-01-24T19:26:22.997Z"}}, {"model": "api.station", "pk": 6008, "fields": {"name": "06008 - ASSAS LUXEMBOURG", "address": "90 RUE D'ASSAS - 75006 PARIS", "lat": 48.8437344688, "lng": 2.33342838188, "banking": true, "bonus": true, "status": "OPEN", "contract_name": "Paris", "bike_stands": 33, "available_bike_stands": 32, "available_bikes": 1, "optimal_criterion": -0.9393939393939394, "last_update": "2016-01-24T19:21:17Z", "modified_date": "2016-01-24T19:26:25.792Z"}}, {"model": "api.station", "pk": 6009, "fields": {"name": "06009 - GUYNEMER LUXEMBOURG", "address": "26 RUE GUYNEMER - 75006 PARIS", "lat": 48.8467209826, "lng": 2.33239459293, "banking": true, "bonus": true, "status": "OPEN", "contract_name": "Paris", "bike_stands": 35, "available_bike_stands": 23, "available_bikes": 12, "optimal_criterion": -0.3142857142857143, "last_update": "2016-01-24T19:24:26Z", "modified_date": "2016-01-24T19:26:21.595Z"}}, {"model": "api.station", "pk": 6010, "fields": {"name": "06010 - MONTPARNASSE CHEVREUSE", "address": "5 RUE DE CHEVREUSE - 75006 PARIS", "lat": 48.8417391612, "lng": 2.33155221674, "banking": true, "bonus": true, "status": "OPEN", "contract_name": "Paris", "bike_stands": 15, "available_bike_stands": 12, "available_bikes": 3, "optimal_criterion": -0.6, "last_update": "2016-01-24T19:20:23Z", "modified_date": "2016-01-24T19:26:26.308Z"}}, {"model": "api.station", "pk": 6012, "fields": {"name": "06012 - SAINT GERMAIN COPEAU", "address": "141 BD SAINT GERMAIN - 75006 PARIS", "lat": 48.8533052776, "lng": 2.33446546188, "banking": true, "bonus": true, "status": "OPEN", "contract_name": "Paris", "bike_stands": 18, "available_bike_stands": 12, "available_bikes": 5, "optimal_criterion": -0.4444444444444444, "last_update": "2016-01-24T19:23:29Z", "modified_date": "2016-01-24T19:26:24.422Z"}}, {"model": "api.station", "pk": 6013, "fields": {"name": "06013 - JACQUES CALLOT", "address": "1 RUE JACQUES CALLOT - 75006 PARIS", "lat": 48.8552546878, "lng": 2.33753933406, "banking": true, "bonus": true, "status": "OPEN", "contract_name": "Paris", "bike_stands": 28, "available_bike_stands": 0, "available_bikes": 28, "optimal_criterion": 1.0, "last_update": "2016-01-24T19:23:09Z", "modified_date": "2016-01-24T19:26:25.047Z"}}, {"model": "api.station", "pk": 6014, "fields": {"name": "06014 - PONT DE LODI DAUPHINE", "address": "7 RUE DU PONT DE LODI - 75006 PARIS", "lat": 48.8552968986, "lng": 2.33994730757, "banking": true, "bonus": true, "status": "OPEN", "contract_name": "Paris", "bike_stands": 26, "available_bike_stands": 11, "available_bikes": 14, "optimal_criterion": 0.07692307692307693, "last_update": "2016-01-24T19:20:08Z", "modified_date": "2016-01-24T19:26:27.323Z"}}, {"model": "api.station", "pk": 6015, "fields": {"name": "06015 - MAZET SAINT ANDRE DES ARTS", "address": "10 RUE ANDRE MAZET - 75006 PARIS", "lat": 48.8537510735, "lng": 2.3391137229, "banking": true, "bonus": true, "status": "OPEN", "contract_name": "Paris", "bike_stands": 54, "available_bike_stands": 6, "available_bikes": 48, "optimal_criterion": 0.7777777777777778, "last_update": "2016-01-24T19:23:49Z", "modified_date": "2016-01-24T19:26:23.261Z"}}, {"model": "api.station", "pk": 6016, "fields": {"name": "06016 - DANTON", "address": "11 RUE DANTON - 75006 PARIS", "lat": 48.8523930093, "lng": 2.34144252247, "banking": true, "bonus": true, "status": "OPEN", "contract_name": "Paris", "bike_stands": 21, "available_bike_stands": 0, "available_bikes": 21, "optimal_criterion": 1.0, "last_update": "2016-01-24T19:17:59Z", "modified_date": "2016-01-24T19:26:28.966Z"}}, {"model": "api.station", "pk": 6017, "fields": {"name": "06017 - SENAT CONDE", "address": "34 RUE CONDE - 75006 PARIS", "lat": 48.8495800022, "lng": 2.33784843718, "banking": true, "bonus": true, "status": "OPEN", "contract_name": "Paris", "bike_stands": 34, "available_bike_stands": 1, "available_bikes": 33, "optimal_criterion": 0.9411764705882353, "last_update": "2016-01-24T19:25:05Z", "modified_date": "2016-01-24T19:26:21.616Z"}}, {"model": "api.station", "pk": 6018, "fields": {"name": "06018 - MICHELET ASSAS", "address": "13 RUE MICHELET - 75006 PARIS", "lat": 48.842540966, "lng": 2.33506788557, "banking": true, "bonus": true, "status": "OPEN", "contract_name": "Paris", "bike_stands": 16, "available_bike_stands": 8, "available_bikes": 7, "optimal_criterion": -0.125, "last_update": "2016-01-24T19:24:50Z", "modified_date": "2016-01-24T19:26:21.303Z"}}, {"model": "api.station", "pk": 6020, "fields": {"name": "06020 - SAINT MICHEL DANTON", "address": "2 RUE DANTON - 75006 PARIS", "lat": 48.8529304106, "lng": 2.34265739289, "banking": true, "bonus": true, "status": "OPEN", "contract_name": "Paris", "bike_stands": 35, "available_bike_stands": 0, "available_bikes": 34, "optimal_criterion": 0.9428571428571428, "last_update": "2016-01-24T19:19:02Z", "modified_date": "2016-01-24T19:26:27.712Z"}}, {"model": "api.station", "pk": 6021, "fields": {"name": "06021 - BONAPARTE BEAUX ARTS", "address": "17 RUE DES BEAUX ARTS - 75006 PARIS", "lat": 48.8564374097, "lng": 2.33479762295, "banking": true, "bonus": true, "status": "OPEN", "contract_name": "Paris", "bike_stands": 19, "available_bike_stands": 3, "available_bikes": 16, "optimal_criterion": 0.6842105263157895, "last_update": "2016-01-24T19:24:42Z", "modified_date": "2016-01-24T19:26:20.837Z"}}, {"model": "api.station", "pk": 6022, "fields": {"name": "06022 - MARCHE SAINT GERMAIN - MABILLON", "address": "17 RUE LOBINEAU - 75006 PARIS", "lat": 48.8516596929, "lng": 2.33550466501, "banking": true, "bonus": true, "status": "OPEN", "contract_name": "Paris", "bike_stands": 21, "available_bike_stands": 1, "available_bikes": 19, "optimal_criterion": 0.8095238095238095, "last_update": "2016-01-24T19:25:17Z", "modified_date": "2016-01-24T19:26:21.928Z"}}, {"model": "api.station", "pk": 6024, "fields": {"name": "06024 - SAINT GERMAIN DES PRES", "address": "55 RUE DES SAINTS PERES - 75006 PARIS", "lat": 48.8539423092, "lng": 2.33015352477, "banking": true, "bonus": true, "status": "OPEN", "contract_name": "Paris", "bike_stands": 26, "available_bike_stands": 8, "available_bikes": 18, "optimal_criterion": 0.38461538461538464, "last_update": "2016-01-24T19:21:19Z", "modified_date": "2016-01-24T19:26:22.587Z"}}, {"model": "api.station", "pk": 6025, "fields": {"name": "06025 - RENNES - ASSAS", "address": "16 RUE D'ASSAS - 75006 PARIS", "lat": 48.8492084999, "lng": 2.32851454623, "banking": true, "bonus": true, "status": "OPEN", "contract_name": "Paris", "bike_stands": 32, "available_bike_stands": 27, "available_bikes": 5, "optimal_criterion": -0.6875, "last_update": "2016-01-24T19:19:53Z", "modified_date": "2016-01-24T19:26:27.456Z"}}, {"model": "api.station", "pk": 6026, "fields": {"name": "06026 - SAINT PLACIDE CHERCHE MIDI", "address": "28 RUE SAINT PLACIDE - 75006 PARIS", "lat": 48.8491399032, "lng": 2.32517538941, "banking": true, "bonus": true, "status": "OPEN", "contract_name": "Paris", "bike_stands": 66, "available_bike_stands": 31, "available_bikes": 33, "optimal_criterion": 0.0, "last_update": "2016-01-24T19:15:54Z", "modified_date": "2016-01-24T19:26:19.729Z"}}, {"model": "api.station", "pk": 6027, "fields": {"name": "06027 - VAUGIRARD DESGOFFE", "address": "2 RUE BLAISE DESGOFFE - 75006 PARIS", "lat": 48.8461298915, "lng": 2.32424057814, "banking": true, "bonus": true, "status": "OPEN", "contract_name": "Paris", "bike_stands": 31, "available_bike_stands": 25, "available_bikes": 5, "optimal_criterion": -0.6774193548387096, "last_update": "2016-01-24T19:17:37Z", "modified_date": "2016-01-24T19:26:28.611Z"}}, {"model": "api.station", "pk": 6028, "fields": {"name": "06028 - ODEON QUATRE VENTS", "address": "6 RUE DES QUATRE VENTS - 75006 PARIS", "lat": 48.8517513745, "lng": 2.33816169513, "banking": true, "bonus": true, "status": "OPEN", "contract_name": "Paris", "bike_stands": 36, "available_bike_stands": 0, "available_bikes": 27, "optimal_criterion": 0.5, "last_update": "2016-01-24T19:22:40Z", "modified_date": "2016-01-24T19:26:25.357Z"}}, {"model": "api.station", "pk": 6029, "fields": {"name": "06029 - VAUGIRARD PRINCE", "address": "FACE 1 RUE DE VAUGIRARD - 75006 PARIS", "lat": 48.8489229582, "lng": 2.34104050871, "banking": true, "bonus": true, "status": "OPEN", "contract_name": "Paris", "bike_stands": 24, "available_bike_stands": 23, "available_bikes": 1, "optimal_criterion": -0.9166666666666666, "last_update": "2016-01-24T19:20:49Z", "modified_date": "2016-01-24T19:26:25.633Z"}}, {"model": "api.station", "pk": 6030, "fields": {"name": "06030 - ASSAS-VAUGIRARD", "address": "22 RUE D'ASSAS - 75006 PARIS", "lat": 48.848468864, "lng": 2.32899674681, "banking": true, "bonus": true, "status": "OPEN", "contract_name": "Paris", "bike_stands": 35, "available_bike_stands": 28, "available_bikes": 7, "optimal_criterion": -0.6, "last_update": "2016-01-24T19:22:00Z", "modified_date": "2016-01-24T19:26:23.033Z"}}, {"model": "api.station", "pk": 6031, "fields": {"name": "06031 - SAINT MICHEL SARRAZIN", "address": "5 RUE PIERRE SARAZIN - 75006 PARIS", "lat": 48.8508336544, "lng": 2.34219822807, "banking": true, "bonus": true, "status": "OPEN", "contract_name": "Paris", "bike_stands": 34, "available_bike_stands": 17, "available_bikes": 17, "optimal_criterion": 0.0, "last_update": "2016-01-24T19:18:59Z", "modified_date": "2016-01-24T19:26:28.321Z"}}, {"model": "api.station", "pk": 6032, "fields": {"name": "06032 - RENNES SABOT", "address": "7 RUE DU SABOT - 75006 PARIS", "lat": 48.8525574217, "lng": 2.33164772291, "banking": true, "bonus": true, "status": "OPEN", "contract_name": "Paris", "bike_stands": 26, "available_bike_stands": 6, "available_bikes": 20, "optimal_criterion": 0.5384615384615384, "last_update": "2016-01-24T19:18:56Z", "modified_date": "2016-01-24T19:26:28.235Z"}}, {"model": "api.station", "pk": 6103, "fields": {"name": "06103 - MEZIERES RENNES", "address": "16 RUE DE MEZIERES - 75006 PARIS", "lat": 48.8502970102, "lng": 2.33044682028, "banking": true, "bonus": true, "status": "OPEN", "contract_name": "Paris", "bike_stands": 55, "available_bike_stands": 14, "available_bikes": 41, "optimal_criterion": 0.4909090909090909, "last_update": "2016-01-24T19:20:34Z", "modified_date": "2016-01-24T19:26:25.647Z"}}, {"model": "api.station", "pk": 6104, "fields": {"name": "06104 - HERSCHEL", "address": "7 RUE HERSCHEL - 75006 PARIS", "lat": 48.8433642428, "lng": 2.33780343097, "banking": true, "bonus": true, "status": "OPEN", "contract_name": "Paris", "bike_stands": 37, "available_bike_stands": 35, "available_bikes": 2, "optimal_criterion": -0.8918918918918919, "last_update": "2016-01-24T19:23:05Z", "modified_date": "2016-01-24T19:26:25.283Z"}}, {"model": "api.station", "pk": 6107, "fields": {"name": "06107 - CHERCHE MIDI", "address": "29 RUE DU CHERCHE MIDI - 75006 PARIS", "lat": 48.8502410872, "lng": 2.32755154921, "banking": true, "bonus": true, "status": "OPEN", "contract_name": "Paris", "bike_stands": 23, "available_bike_stands": 8, "available_bikes": 15, "optimal_criterion": 0.30434782608695654, "last_update": "2016-01-24T19:24:05Z", "modified_date": "2016-01-24T19:26:23.269Z"}}, {"model": "api.station", "pk": 6108, "fields": {"name": "06108 - SAINT ROMAIN CHERCHE MIDI", "address": "20 RUE SAINT ROMAIN - 75006 PARIS", "lat": 48.8470300806, "lng": 2.32128942101, "banking": true, "bonus": true, "status": "OPEN", "contract_name": "Paris", "bike_stands": 16, "available_bike_stands": 13, "available_bikes": 3, "optimal_criterion": -0.625, "last_update": "2016-01-24T19:24:15Z", "modified_date": "2016-01-24T19:26:24.451Z"}}, {"model": "api.station", "pk": 7001, "fields": {"name": "07001 - DUROC", "address": "63 BOULEVARD DES INVALIDES - 75007 PARIS", "lat": 48.8477698568, "lng": 2.31618388673, "banking": true, "bonus": true, "status": "OPEN", "contract_name": "Paris", "bike_stands": 45, "available_bike_stands": 42, "available_bikes": 3, "optimal_criterion": -0.8666666666666667, "last_update": "2016-01-24T19:24:03Z", "modified_date": "2016-01-24T19:26:23.382Z"}}, {"model": "api.station", "pk": 7002, "fields": {"name": "07002 - VANEAU", "address": "86 RUE VANEAU - 75007 PARIS", "lat": 48.8485776076, "lng": 2.32041739312, "banking": true, "bonus": true, "status": "OPEN", "contract_name": "Paris", "bike_stands": 35, "available_bike_stands": 11, "available_bikes": 24, "optimal_criterion": 0.37142857142857144, "last_update": "2016-01-24T19:19:28Z", "modified_date": "2016-01-24T19:26:27.267Z"}}, {"model": "api.station", "pk": 7003, "fields": {"name": "07003 - BON MARCHE", "address": "RUE VELPEAU - 75007 PARIS", "lat": 48.8512303803, "lng": 2.32507003874, "banking": true, "bonus": true, "status": "OPEN", "contract_name": "Paris", "bike_stands": 59, "available_bike_stands": 26, "available_bikes": 31, "optimal_criterion": 0.05084745762711865, "last_update": "2016-01-24T19:19:05Z", "modified_date": "2016-01-24T19:26:27.982Z"}}, {"model": "api.station", "pk": 7004, "fields": {"name": "07004 - RASPAIL VARENNE", "address": "FACE 28 BOULEVARD RASPAIL - 75007 PARIS", "lat": 48.8532616686, "lng": 2.32631980638, "banking": true, "bonus": true, "status": "OPEN", "contract_name": "Paris", "bike_stands": 36, "available_bike_stands": 0, "available_bikes": 36, "optimal_criterion": 1.0, "last_update": "2016-01-24T19:24:26Z", "modified_date": "2016-01-24T19:26:20.423Z"}}, {"model": "api.station", "pk": 7005, "fields": {"name": "07005 - BAC", "address": "FACE 2 BOULEVARD RASPAIL - 75007 PARIS", "lat": 48.855461736, "lng": 2.32568193589, "banking": true, "bonus": true, "status": "OPEN", "contract_name": "Paris", "bike_stands": 52, "available_bike_stands": 2, "available_bikes": 46, "optimal_criterion": 0.7692307692307693, "last_update": "2016-01-24T19:18:35Z", "modified_date": "2016-01-24T19:26:28.188Z"}}, {"model": "api.station", "pk": 7006, "fields": {"name": "07006 - QUAI VOLTAIRE", "address": "QUAI VOLTAIRE - 75007 PARIS", "lat": 48.8589429862, "lng": 2.33141820471, "banking": true, "bonus": true, "status": "OPEN", "contract_name": "Paris", "bike_stands": 32, "available_bike_stands": 0, "available_bikes": 20, "optimal_criterion": 0.25, "last_update": "2016-01-24T19:18:16Z", "modified_date": "2016-01-24T19:26:29.025Z"}}, {"model": "api.station", "pk": 7007, "fields": {"name": "07007 - MUS\u00c9E D'ORSAY", "address": "62 RUE DE LILLE - 75007 PARIS", "lat": 48.8597101044, "lng": 2.32580902463, "banking": true, "bonus": true, "status": "OPEN", "contract_name": "Paris", "bike_stands": 65, "available_bike_stands": 29, "available_bikes": 36, "optimal_criterion": 0.1076923076923077, "last_update": "2016-01-24T19:23:42Z", "modified_date": "2016-01-24T19:26:23.174Z"}}, {"model": "api.station", "pk": 7008, "fields": {"name": "07008 - SOLFERINO", "address": "10 RUE DE VILLERSEXEL - 75007 PARIS", "lat": 48.8583186469, "lng": 2.32383843779, "banking": true, "bonus": true, "status": "OPEN", "contract_name": "Paris", "bike_stands": 16, "available_bike_stands": 6, "available_bikes": 10, "optimal_criterion": 0.25, "last_update": "2016-01-24T19:23:00Z", "modified_date": "2016-01-24T19:26:25.336Z"}}, {"model": "api.station", "pk": 7009, "fields": {"name": "07009 - ASSEMBLEE NATIONALE", "address": "FACE 119 RUE DE LILLE - 75007 PARIS", "lat": 48.8613738909, "lng": 2.3201312769, "banking": true, "bonus": true, "status": "OPEN", "contract_name": "Paris", "bike_stands": 62, "available_bike_stands": 12, "available_bikes": 50, "optimal_criterion": 0.6129032258064516, "last_update": "2016-01-24T19:22:20Z", "modified_date": "2016-01-24T19:26:24.680Z"}}, {"model": "api.station", "pk": 7010, "fields": {"name": "07010 - INVALIDES", "address": "FACE 3 RUE DE CONSTANTINE - 75007 PARIS", "lat": 48.860769958, "lng": 2.3148382795, "banking": true, "bonus": true, "status": "OPEN", "contract_name": "Paris", "bike_stands": 65, "available_bike_stands": 48, "available_bikes": 15, "optimal_criterion": -0.5384615384615384, "last_update": "2016-01-24T19:24:32Z", "modified_date": "2016-01-24T19:26:21.588Z"}}, {"model": "api.station", "pk": 7011, "fields": {"name": "07011 - ST DOMINIQUE", "address": "30 BIS RUE LAS CASES - 75007 PARIS", "lat": 48.859068395, "lng": 2.31862422113, "banking": true, "bonus": true, "status": "OPEN", "contract_name": "Paris", "bike_stands": 22, "available_bike_stands": 8, "available_bikes": 14, "optimal_criterion": 0.2727272727272727, "last_update": "2016-01-24T19:24:32Z", "modified_date": "2016-01-24T19:26:21.750Z"}}, {"model": "api.station", "pk": 7012, "fields": {"name": "07012 - CITE VANEAU", "address": "7 CITE VANEAU - 75007 PARIS", "lat": 48.8542683341, "lng": 2.31945401006, "banking": true, "bonus": true, "status": "OPEN", "contract_name": "Paris", "bike_stands": 36, "available_bike_stands": 10, "available_bikes": 26, "optimal_criterion": 0.4444444444444444, "last_update": "2016-01-24T19:24:16Z", "modified_date": "2016-01-24T19:26:23.185Z"}}, {"model": "api.station", "pk": 7013, "fields": {"name": "07013 - PLACE DE BRETEUIL", "address": "17 RUE DUROC - 75007 PARIS", "lat": 48.8475022584, "lng": 2.31268832866, "banking": true, "bonus": true, "status": "OPEN", "contract_name": "Paris", "bike_stands": 55, "available_bike_stands": 43, "available_bikes": 12, "optimal_criterion": -0.5636363636363636, "last_update": "2016-01-24T19:23:45Z", "modified_date": "2016-01-24T19:26:24.204Z"}}, {"model": "api.station", "pk": 7014, "fields": {"name": "07014 - SAINT FRANCOIS XAVIER", "address": "35 BOULEVARD DES INVALIDES - 75007 PARIS", "lat": 48.851678229, "lng": 2.31463384063, "banking": true, "bonus": true, "status": "OPEN", "contract_name": "Paris", "bike_stands": 42, "available_bike_stands": 3, "available_bikes": 36, "optimal_criterion": 0.7142857142857143, "last_update": "2016-01-24T19:18:34Z", "modified_date": "2016-01-24T19:26:27.815Z"}}, {"model": "api.station", "pk": 7015, "fields": {"name": "07015 - VARENNE", "address": "9 BOULEVARD DES INVALIDES - 75007 PARIS", "lat": 48.8572901185, "lng": 2.31530968318, "banking": true, "bonus": true, "status": "OPEN", "contract_name": "Paris", "bike_stands": 47, "available_bike_stands": 12, "available_bikes": 35, "optimal_criterion": 0.48936170212765956, "last_update": "2016-01-24T19:23:01Z", "modified_date": "2016-01-24T19:26:25.146Z"}}, {"model": "api.station", "pk": 7016, "fields": {"name": "07016 - TOUR MAUBOURG UNIVERSITE", "address": "13 RUE SURCOUF - 75007 PARIS", "lat": 48.8612730163, "lng": 2.30945355091, "banking": true, "bonus": true, "status": "OPEN", "contract_name": "Paris", "bike_stands": 58, "available_bike_stands": 13, "available_bikes": 44, "optimal_criterion": 0.5172413793103449, "last_update": "2016-01-24T19:25:08Z", "modified_date": "2016-01-24T19:26:21.440Z"}}, {"model": "api.station", "pk": 7017, "fields": {"name": "07017 - LA TOUR MAUBOURG", "address": "1 AVENUE DE LA MOTTE PICQUET - 75007 PARIS", "lat": 48.8572764983, "lng": 2.31025792753, "banking": true, "bonus": true, "status": "OPEN", "contract_name": "Paris", "bike_stands": 39, "available_bike_stands": 8, "available_bikes": 31, "optimal_criterion": 0.5897435897435898, "last_update": "2016-01-24T19:20:20Z", "modified_date": "2016-01-24T19:26:26.272Z"}}, {"model": "api.station", "pk": 7018, "fields": {"name": "07018 - SEGUR ESTREES", "address": "23 AVENUE DE SEGUR - 75007 PARIS", "lat": 48.8512943346, "lng": 2.3097476156, "banking": true, "bonus": true, "status": "OPEN", "contract_name": "Paris", "bike_stands": 18, "available_bike_stands": 1, "available_bikes": 16, "optimal_criterion": 0.7777777777777778, "last_update": "2016-01-24T19:22:03Z", "modified_date": "2016-01-24T19:26:22.408Z"}}, {"model": "api.station", "pk": 7019, "fields": {"name": "07019 - ECOLE MILITAIRE", "address": "85 AVENUE BOSQUET - 75007 PARIS", "lat": 48.854951168, "lng": 2.3054786342, "banking": true, "bonus": true, "status": "OPEN", "contract_name": "Paris", "bike_stands": 47, "available_bike_stands": 21, "available_bikes": 26, "optimal_criterion": 0.10638297872340426, "last_update": "2016-01-24T19:21:05Z", "modified_date": "2016-01-24T19:26:26.385Z"}}, {"model": "api.station", "pk": 7020, "fields": {"name": "07020 - CLER", "address": "FACE 3 RUE DU CHAMP DE MARS - 75007 PARIS", "lat": 48.8566411001, "lng": 2.30659853411, "banking": true, "bonus": true, "status": "OPEN", "contract_name": "Paris", "bike_stands": 57, "available_bike_stands": 1, "available_bikes": 56, "optimal_criterion": 0.9649122807017544, "last_update": "2016-01-24T19:20:00Z", "modified_date": "2016-01-24T19:26:27.607Z"}}, {"model": "api.station", "pk": 7021, "fields": {"name": "07021 - BOSQUET SAINT DOMINIQUE", "address": "37 AVENUE BOSQUET - 75007 PARIS", "lat": 48.8586517095, "lng": 2.30371658023, "banking": true, "bonus": true, "status": "OPEN", "contract_name": "Paris", "bike_stands": 50, "available_bike_stands": 37, "available_bikes": 13, "optimal_criterion": -0.48, "last_update": "2016-01-24T19:21:21Z", "modified_date": "2016-01-24T19:26:22.349Z"}}, {"model": "api.station", "pk": 7022, "fields": {"name": "07022 - PONT DE L'ALMA", "address": "3 AVENUE BOSQUET - 75007 PARIS", "lat": 48.8616404996, "lng": 2.30225034418, "banking": true, "bonus": true, "status": "OPEN", "contract_name": "Paris", "bike_stands": 69, "available_bike_stands": 15, "available_bikes": 46, "optimal_criterion": 0.3333333333333333, "last_update": "2016-01-24T19:16:55Z", "modified_date": "2016-01-24T19:26:18.779Z"}}, {"model": "api.station", "pk": 7023, "fields": {"name": "07023 - BOURDONNAIS TOUR EIFFEL", "address": "QUAI BRANLY - 75007 PARIS", "lat": 48.8608977979, "lng": 2.29559959845, "banking": true, "bonus": true, "status": "OPEN", "contract_name": "Paris", "bike_stands": 60, "available_bike_stands": 22, "available_bikes": 38, "optimal_criterion": 0.26666666666666666, "last_update": "2016-01-24T19:25:00Z", "modified_date": "2016-01-24T19:26:20.716Z"}}, {"model": "api.station", "pk": 7024, "fields": {"name": "07024 - AVENUE RAPP", "address": "43 AVENUE RAPP - 75007 PARIS", "lat": 48.8581690435, "lng": 2.30052833004, "banking": true, "bonus": true, "status": "OPEN", "contract_name": "Paris", "bike_stands": 31, "available_bike_stands": 24, "available_bikes": 7, "optimal_criterion": -0.5483870967741935, "last_update": "2016-01-24T19:20:27Z", "modified_date": "2016-01-24T19:26:26.170Z"}}, {"model": "api.station", "pk": 7025, "fields": {"name": "07025 - SUFFREN TOUR EIFFEL", "address": "2 AVENUE OCTAVE CREARD - 75007 PARIS", "lat": 48.8565029777, "lng": 2.29317875433, "banking": true, "bonus": true, "status": "OPEN", "contract_name": "Paris", "bike_stands": 33, "available_bike_stands": 2, "available_bikes": 31, "optimal_criterion": 0.8787878787878788, "last_update": "2016-01-24T19:16:10Z", "modified_date": "2016-01-24T19:26:19.897Z"}}, {"model": "api.station", "pk": 7026, "fields": {"name": "07026 - PLACE DE FINLANDE", "address": "39 QUAI D'ORSAY - 75007 PARIS", "lat": 48.86269, "lng": 2.31138, "banking": true, "bonus": true, "status": "OPEN", "contract_name": "Paris", "bike_stands": 25, "available_bike_stands": 18, "available_bikes": 7, "optimal_criterion": -0.44, "last_update": "2016-01-24T19:24:16Z", "modified_date": "2016-01-24T19:26:23.935Z"}}, {"model": "api.station", "pk": 7101, "fields": {"name": "07101 - SEVRES BABYLONE", "address": "BOULEVARD RASPAIL - 75007 PARIS", "lat": 48.8522416177, "lng": 2.32660601948, "banking": true, "bonus": true, "status": "OPEN", "contract_name": "Paris", "bike_stands": 54, "available_bike_stands": 4, "available_bikes": 48, "optimal_criterion": 0.7777777777777778, "last_update": "2016-01-24T19:15:44Z", "modified_date": "2016-01-24T19:26:19.706Z"}}, {"model": "api.station", "pk": 7102, "fields": {"name": "07102 - SAINTE CLOTHILDE", "address": "FACE 19 RUE CASIMIR PERIER - 75007 PARIS", "lat": 48.8578291107, "lng": 2.31914905258, "banking": true, "bonus": true, "status": "OPEN", "contract_name": "Paris", "bike_stands": 42, "available_bike_stands": 26, "available_bikes": 16, "optimal_criterion": -0.23809523809523808, "last_update": "2016-01-24T19:17:50Z", "modified_date": "2016-01-24T19:26:28.894Z"}}, {"model": "api.station", "pk": 7103, "fields": {"name": "07103 - BELGRADE", "address": "2 RUE DE BELGRADE - 75007 PARIS", "lat": 48.8560593101, "lng": 2.30223912888, "banking": true, "bonus": true, "status": "OPEN", "contract_name": "Paris", "bike_stands": 20, "available_bike_stands": 12, "available_bikes": 8, "optimal_criterion": -0.2, "last_update": "2016-01-24T19:24:49Z", "modified_date": "2016-01-24T19:26:21.138Z"}}, {"model": "api.station", "pk": 8001, "fields": {"name": "08001 - PETIT PALAIS", "address": "AV. DUTUIT - 75008 PARIS", "lat": 48.8668438033, "lng": 2.31577971341, "banking": true, "bonus": true, "status": "OPEN", "contract_name": "Paris", "bike_stands": 41, "available_bike_stands": 27, "available_bikes": 14, "optimal_criterion": -0.3170731707317073, "last_update": "2016-01-24T19:16:42Z", "modified_date": "2016-01-24T19:26:18.814Z"}}, {"model": "api.station", "pk": 8002, "fields": {"name": "08002 - GARE SAINT LAZARE - COUR DU HAVRE", "address": "Cour du Havre - Face au 2, rue d'Amsterdam - 75008 PARIS", "lat": 48.87572, "lng": 2.32668, "banking": true, "bonus": true, "status": "OPEN", "contract_name": "Paris", "bike_stands": 46, "available_bike_stands": 23, "available_bikes": 21, "optimal_criterion": -0.08695652173913043, "last_update": "2016-01-24T19:23:12Z", "modified_date": "2016-01-24T19:26:24.757Z"}}, {"model": "api.station", "pk": 8003, "fields": {"name": "08003 - GALILLE", "address": "63 RUE GALILEE - 75008 PARIS", "lat": 48.8717051914, "lng": 2.29852826568, "banking": true, "bonus": true, "status": "OPEN", "contract_name": "Paris", "bike_stands": 17, "available_bike_stands": 17, "available_bikes": 0, "optimal_criterion": -1.0, "last_update": "2016-01-24T19:23:18Z", "modified_date": "2016-01-24T19:26:24.229Z"}}, {"model": "api.station", "pk": 8004, "fields": {"name": "08004 - MALESHERBES PASQUIER", "address": "FACE 4 BD MALESHERBES - 75008 PARIS", "lat": 48.8704218834, "lng": 2.32328899479, "banking": true, "bonus": true, "status": "OPEN", "contract_name": "Paris", "bike_stands": 64, "available_bike_stands": 11, "available_bikes": 53, "optimal_criterion": 0.65625, "last_update": "2016-01-24T19:15:43Z", "modified_date": "2016-01-24T19:26:19.551Z"}}, {"model": "api.station", "pk": 8005, "fields": {"name": "08005 - MADELEINE", "address": "04 PLACE DE LA MADELEINE - 75008 PARIS", "lat": 48.8690900883, "lng": 2.3244296305, "banking": true, "bonus": true, "status": "OPEN", "contract_name": "Paris", "bike_stands": 37, "available_bike_stands": 14, "available_bikes": 23, "optimal_criterion": 0.24324324324324326, "last_update": "2016-01-24T19:16:47Z", "modified_date": "2016-01-24T19:26:18.800Z"}}, {"model": "api.station", "pk": 8007, "fields": {"name": "08007 - HAUSSMANN ROME", "address": "1 RUE DE ROME - 75008 PARIS", "lat": 48.8742300556, "lng": 2.32557011172, "banking": true, "bonus": true, "status": "OPEN", "contract_name": "Paris", "bike_stands": 30, "available_bike_stands": 3, "available_bikes": 27, "optimal_criterion": 0.8, "last_update": "2016-01-24T19:16:32Z", "modified_date": "2016-01-24T19:26:18.949Z"}}, {"model": "api.station", "pk": 8008, "fields": {"name": "08008 - ROME SAINT LAZARE", "address": "1 RUE JOSEPH SANSBOEUF - 75008 PARIS", "lat": 48.8753531745, "lng": 2.32288436575, "banking": true, "bonus": true, "status": "OPEN", "contract_name": "Paris", "bike_stands": 18, "available_bike_stands": 1, "available_bikes": 17, "optimal_criterion": 0.8888888888888888, "last_update": "2016-01-24T19:24:57Z", "modified_date": "2016-01-24T19:26:20.543Z"}}, {"model": "api.station", "pk": 8009, "fields": {"name": "08009 - SAINT LAZARE RER", "address": "1 RUE DE L'ISLY - 75008 PARIS", "lat": 48.874808025, "lng": 2.32648148622, "banking": true, "bonus": true, "status": "OPEN", "contract_name": "Paris", "bike_stands": 28, "available_bike_stands": 0, "available_bikes": 25, "optimal_criterion": 0.7857142857142857, "last_update": "2016-01-24T19:23:44Z", "modified_date": "2016-01-24T19:26:24.118Z"}}, {"model": "api.station", "pk": 8010, "fields": {"name": "08010 - LIEGE", "address": "22 RUE DE LIEGE - 75008 PARIS", "lat": 48.8795811656, "lng": 2.32642735247, "banking": true, "bonus": true, "status": "OPEN", "contract_name": "Paris", "bike_stands": 17, "available_bike_stands": 14, "available_bikes": 2, "optimal_criterion": -0.7647058823529411, "last_update": "2016-01-24T19:18:54Z", "modified_date": "2016-01-24T19:26:28.158Z"}}, {"model": "api.station", "pk": 8011, "fields": {"name": "08011 - DUBLIN", "address": "1 RUE CLAPEYRON - 75008 PARIS", "lat": 48.8809353568, "lng": 2.32451663515, "banking": true, "bonus": true, "status": "OPEN", "contract_name": "Paris", "bike_stands": 16, "available_bike_stands": 16, "available_bikes": 0, "optimal_criterion": -1.0, "last_update": "2016-01-24T19:20:02Z", "modified_date": "2016-01-24T19:26:27.190Z"}}, {"model": "api.station", "pk": 8012, "fields": {"name": "08012 - CLICHY", "address": "10 BOULEVARD DES BATIGNOLLES SUR TPC - 75008 PARIS", "lat": 48.8833180444, "lng": 2.32620717539, "banking": true, "bonus": true, "status": "OPEN", "contract_name": "Paris", "bike_stands": 47, "available_bike_stands": 41, "available_bikes": 6, "optimal_criterion": -0.7446808510638298, "last_update": "2016-01-24T19:23:32Z", "modified_date": "2016-01-24T19:26:23.570Z"}}, {"model": "api.station", "pk": 8013, "fields": {"name": "08013 - MARIGNAN", "address": "24 RUE DE MARIGNAN - 75008 PARIS", "lat": 48.8696161949, "lng": 2.3066208349, "banking": true, "bonus": true, "status": "OPEN", "contract_name": "Paris", "bike_stands": 33, "available_bike_stands": 28, "available_bikes": 5, "optimal_criterion": -0.696969696969697, "last_update": "2016-01-24T19:24:24Z", "modified_date": "2016-01-24T19:26:20.515Z"}}, {"model": "api.station", "pk": 8015, "fields": {"name": "08015 - ROQUEPINE", "address": "4 RUE ROQUEPINE - 75008 PARIS", "lat": 48.8734861693, "lng": 2.32028123421, "banking": true, "bonus": true, "status": "OPEN", "contract_name": "Paris", "bike_stands": 44, "available_bike_stands": 41, "available_bikes": 3, "optimal_criterion": -0.8636363636363636, "last_update": "2016-01-24T19:20:05Z", "modified_date": "2016-01-24T19:26:27.037Z"}}, {"model": "api.station", "pk": 8016, "fields": {"name": "08016 - SQUARE LOUIS XVI", "address": "DEV 32 RUE PASQUIER - 75008 PARIS", "lat": 48.873204401, "lng": 2.32365883074, "banking": true, "bonus": true, "status": "OPEN", "contract_name": "Paris", "bike_stands": 39, "available_bike_stands": 8, "available_bikes": 31, "optimal_criterion": 0.5897435897435898, "last_update": "2016-01-24T19:18:32Z", "modified_date": "2016-01-24T19:26:27.777Z"}}, {"model": "api.station", "pk": 8017, "fields": {"name": "08017 - ROCHER", "address": "14 RUE ROCHER - 75008 PARIS", "lat": 48.8760793292, "lng": 2.32273156205, "banking": true, "bonus": true, "status": "OPEN", "contract_name": "Paris", "bike_stands": 64, "available_bike_stands": 9, "available_bikes": 55, "optimal_criterion": 0.71875, "last_update": "2016-01-24T19:16:17Z", "modified_date": "2016-01-24T19:26:19.626Z"}}, {"model": "api.station", "pk": 8018, "fields": {"name": "08018 - SAINT AUGUSTIN", "address": "18 PLACE HENRI BERGSON - 75008 PARIS", "lat": 48.8762011622, "lng": 2.31979392397, "banking": true, "bonus": true, "status": "OPEN", "contract_name": "Paris", "bike_stands": 32, "available_bike_stands": 2, "available_bikes": 30, "optimal_criterion": 0.875, "last_update": "2016-01-24T19:23:33Z", "modified_date": "2016-01-24T19:26:24.046Z"}}, {"model": "api.station", "pk": 8019, "fields": {"name": "08019 - EUROPE", "address": "03 RUE DE NAPLES - 75008 PARIS", "lat": 48.8799571638, "lng": 2.32135967628, "banking": true, "bonus": true, "status": "OPEN", "contract_name": "Paris", "bike_stands": 43, "available_bike_stands": 27, "available_bikes": 15, "optimal_criterion": -0.3023255813953488, "last_update": "2016-01-24T19:18:39Z", "modified_date": "2016-01-24T19:26:28.264Z"}}, {"model": "api.station", "pk": 8020, "fields": {"name": "08020 - METRO ROME", "address": "74 BOULEVARD DES BATIGNOLLES - 75008 PARIS", "lat": 48.8821489456, "lng": 2.31986005477, "banking": true, "bonus": true, "status": "OPEN", "contract_name": "Paris", "bike_stands": 44, "available_bike_stands": 39, "available_bikes": 5, "optimal_criterion": -0.7727272727272727, "last_update": "2016-01-24T19:25:01Z", "modified_date": "2016-01-24T19:26:20.206Z"}}, {"model": "api.station", "pk": 8025, "fields": {"name": "08025 - MIROMESNIL", "address": "39 RUE DE MIROMESNIL - 75008 PARIS", "lat": 48.8737604721, "lng": 2.31587630835, "banking": true, "bonus": true, "status": "OPEN", "contract_name": "Paris", "bike_stands": 33, "available_bike_stands": 15, "available_bikes": 18, "optimal_criterion": 0.09090909090909091, "last_update": "2016-01-24T19:21:54Z", "modified_date": "2016-01-24T19:26:22.049Z"}}, {"model": "api.station", "pk": 8026, "fields": {"name": "08026 - MESSINE", "address": "2 AVENUE MESSINE - 75008 PARIS", "lat": 48.8754572002, "lng": 2.31546549458, "banking": true, "bonus": true, "status": "OPEN", "contract_name": "Paris", "bike_stands": 13, "available_bike_stands": 7, "available_bikes": 6, "optimal_criterion": -0.07692307692307693, "last_update": "2016-01-24T19:20:25Z", "modified_date": "2016-01-24T19:26:25.725Z"}}, {"model": "api.station", "pk": 8027, "fields": {"name": "08027 - MAIRIE DU 8 \u00c8ME", "address": "28 RUE DE MADRID - 75008 PARIS", "lat": 48.8779840275, "lng": 2.31840486278, "banking": true, "bonus": true, "status": "OPEN", "contract_name": "Paris", "bike_stands": 14, "available_bike_stands": 9, "available_bikes": 5, "optimal_criterion": -0.2857142857142857, "last_update": "2016-01-24T19:18:33Z", "modified_date": "2016-01-24T19:26:28.295Z"}}, {"model": "api.station", "pk": 8028, "fields": {"name": "08028 - HOUSSAYE", "address": "1 RUE ARSENE HOUSSAYE - 75008 PARIS", "lat": 48.8734340814, "lng": 2.29770677798, "banking": true, "bonus": true, "status": "OPEN", "contract_name": "Paris", "bike_stands": 28, "available_bike_stands": 25, "available_bikes": 2, "optimal_criterion": -0.8571428571428571, "last_update": "2016-01-24T19:20:17Z", "modified_date": "2016-01-24T19:26:27.137Z"}}, {"model": "api.station", "pk": 8029, "fields": {"name": "08029 - PLACE DU CANADA", "address": "1 AVENUE FRANKLIN ROOSEVELT - 75008 PARIS", "lat": 48.8653462694, "lng": 2.31019378796, "banking": true, "bonus": true, "status": "OPEN", "contract_name": "Paris", "bike_stands": 36, "available_bike_stands": 22, "available_bikes": 14, "optimal_criterion": -0.2222222222222222, "last_update": "2016-01-24T19:22:08Z", "modified_date": "2016-01-24T19:26:22.277Z"}}, {"model": "api.station", "pk": 8030, "fields": {"name": "08030 - MONTAIGNE", "address": "25 RUE BAYARD - 75008 PARIS", "lat": 48.8672932362, "lng": 2.30769160565, "banking": true, "bonus": true, "status": "OPEN", "contract_name": "Paris", "bike_stands": 35, "available_bike_stands": 26, "available_bikes": 9, "optimal_criterion": -0.4857142857142857, "last_update": "2016-01-24T19:24:55Z", "modified_date": "2016-01-24T19:26:20.844Z"}}, {"model": "api.station", "pk": 8031, "fields": {"name": "08031 - ROND POINT DES CHAMPS ELYSEES", "address": "2 RUE JEAN MERMOZ - 75008 PARIS", "lat": 48.869708848, "lng": 2.31071465537, "banking": true, "bonus": true, "status": "OPEN", "contract_name": "Paris", "bike_stands": 33, "available_bike_stands": 19, "available_bikes": 14, "optimal_criterion": -0.15151515151515152, "last_update": "2016-01-24T19:22:22Z", "modified_date": "2016-01-24T19:26:24.544Z"}}, {"model": "api.station", "pk": 8032, "fields": {"name": "08032 - MATIGNON", "address": "27 AVENUE MATIGNON - 75008 PARIS", "lat": 48.8714764213, "lng": 2.31388541995, "banking": true, "bonus": true, "status": "OPEN", "contract_name": "Paris", "bike_stands": 67, "available_bike_stands": 55, "available_bikes": 12, "optimal_criterion": -0.6417910447761194, "last_update": "2016-01-24T19:23:25Z", "modified_date": "2016-01-24T19:26:24.368Z"}}, {"model": "api.station", "pk": 8033, "fields": {"name": "08033 - SAINT PHILIPPE DU ROULE", "address": "1 RUE DU CDT RIVIERE - 75008 PARIS", "lat": 48.8727876808, "lng": 2.30972258893, "banking": true, "bonus": true, "status": "OPEN", "contract_name": "Paris", "bike_stands": 27, "available_bike_stands": 18, "available_bikes": 6, "optimal_criterion": -0.5555555555555556, "last_update": "2016-01-24T19:21:11Z", "modified_date": "2016-01-24T19:26:25.845Z"}},